{"ok":true,"license":"CC BY 4.0 -  https:\/\/creativecommons.tankerkoenig.de","data":"MTS-K","status":"ok","stations":[{"id":"e1a15081-25a3-9107-e040-0b0a3dfe563c","name":"Berlin, Holzmarktstr. 4","brand":"HEM","street":"Holzmarktstr.","place":"Berlin","lat":52.51477,"lng":13.419435,"dist":0,"diesel":1.099,"e5":1.299,"e10":1.279,"isOpen":true,"houseNumber":"4","postCode":10179},{"id":"278130b1-e062-4a0f-80cc-19e486b4c024","name":"Aral Tankstelle","brand":"ARAL","street":"Holzmarktstra\u00dfe","place":"Berlin","lat":52.5141525,"lng":13.4214869,"dist":0.2,"diesel":1.139,"e5":1.329,"e10":1.309,"isOpen":true,"houseNumber":"12\/14","postCode":10179},{"id":"4429a7d9-fb2d-4c29-8cfe-2ca90323f9f8","name":"TOTAL BERLIN","brand":"TOTAL","street":"HOLZMARKTSTR.","place":"BERLIN","lat":52.5114,"lng":13.428477,"dist":0.7,"diesel":1.109,"e5":1.309,"e10":1.289,"isOpen":true,"houseNumber":"36-42","postCode":10243},{"id":"594eafdd-3537-45ae-8bf0-d667aaa25454","name":"BERLIN, ORANIENSTR.","brand":"Shell","street":"ORANIENSTR. 138","place":"BERLIN","lat":52.504122,"lng":13.408138,"dist":1.4,"diesel":1.139,"e5":1.329,"e10":1.289,"isOpen":true,"houseNumber":"","postCode":10969},{"id":"813ed58c-b58d-4d17-895b-2078cb302649","name":"Aral Tankstelle","brand":"ARAL","street":"Prinzenstra\u00dfe","place":"Berlin","lat":52.5018959,"lng":13.4098387,"dist":1.6,"diesel":1.139,"e5":1.329,"e10":1.309,"isOpen":true,"houseNumber":"29","postCode":10969},{"id":"94e70fc4-b22f-4e5a-877f-bc1082cdae81","name":"TOTAL BERLIN","brand":"TOTAL","street":"PRENZLAUER ALLEE","place":"BERLIN","lat":52.5289,"lng":13.41808,"dist":1.6,"diesel":1.139,"e5":1.329,"e10":1.309,"isOpen":true,"houseNumber":"1-4","postCode":10405},{"id":"448e4ee6-3404-4868-b7e6-ea59a5c78eb9","name":"Aral Tankstelle","brand":"ARAL","street":"Skalitzer Stra\u00dfe","place":"Berlin","lat":52.498703,"lng":13.4225378,"dist":1.8,"diesel":1.159,"e5":1.329,"e10":1.309,"isOpen":true,"houseNumber":"26","postCode":10999},{"id":"1723edea-8e01-4de3-8c5e-ca227a49e2c3","name":"BERLIN, SKALITZER STR. 48.","brand":"Shell","street":"SKALITZER STR. 48","place":"BERLIN","lat":52.499217,"lng":13.433074,"dist":2,"diesel":1.159,"e5":1.329,"e10":1.289,"isOpen":true,"houseNumber":"","postCode":10997},{"id":"474e5046-deaf-4f9b-9a32-9797b778f047","name":"TOTAL BERLIN","brand":"TOTAL","street":"MARGARETE-SOMMER-STR.","place":"BERLIN","lat":52.53083,"lng":13.440946,"dist":2.3,"diesel":1.139,"e5":1.329,"e10":1.309,"isOpen":true,"houseNumber":"2","postCode":10407},{"id":"1c4f126b-1f3c-4b38-9692-05c400ea8e61","name":"Sprint Berlin Kniprodestr.","brand":"Sprint","street":"Kniprodestr.","place":"Berlin","lat":52.533901,"lng":13.4451,"dist":2.7,"diesel":1.129,"e5":1.319,"e10":1.299,"isOpen":true,"houseNumber":"25","postCode":10407},{"id":"c1d9c3c2-a6de-4111-8e63-81bee1189b50","name":"Aral Tankstelle","brand":"ARAL","street":"Vor dem Schlesischen Tor","place":"Berlin","lat":52.4968567,"lng":13.4496136,"dist":2.9,"diesel":1.129,"e5":1.329,"e10":1.309,"isOpen":true,"houseNumber":"","postCode":10997},{"id":"38e0e779-b0f1-46ae-a35b-09f8e37024a1","name":"TOTAL BERLIN","brand":"TOTAL","street":"STORKOWER STR.","place":"BERLIN","lat":52.52744,"lng":13.457798,"dist":3,"diesel":1.139,"e5":1.329,"e10":1.309,"isOpen":true,"houseNumber":"174","postCode":10369},{"id":"ea59b523-4e33-490d-ae24-32c88508dab9","name":"Esso Tankstelle","brand":"ESSO","street":"SONNENALLEE 9","place":"BERLIN","lat":52.487908,"lng":13.4264,"dist":3,"diesel":1.129,"e5":1.329,"e10":1.309,"isOpen":true,"houseNumber":"","postCode":12047},{"id":"51d4b6a9-a095-1aa0-e100-80009459e03a","name":"JET BERLIN STORKOWER STR. 126-130","brand":"JET","street":"STORKOWER STR. 126-130","place":"BERLIN","lat":52.5337,"lng":13.4521,"dist":3.1,"diesel":1.099,"e5":1.299,"e10":1.279,"isOpen":true,"houseNumber":"","postCode":10407},{"id":"579d25fd-acb9-445a-9494-f7fe0fa7ce4a","name":"ELAN BERLIN","brand":"ELAN","street":"STORKOWER STR.","place":"BERLIN","lat":52.535343,"lng":13.450748,"dist":3.1,"diesel":1.129,"e5":1.319,"e10":1.299,"isOpen":true,"houseNumber":"116","postCode":10407},{"id":"33abf29f-9c16-4abf-a1b2-409476b42f97","name":"Esso Tankstelle","brand":"ESSO","street":"GNEISENAUSTR. 104-106","place":"BERLIN","lat":52.492719,"lng":13.390687,"dist":3.1,"diesel":1.149,"e5":1.329,"e10":1.309,"isOpen":true,"houseNumber":"","postCode":10961},{"id":"5b24dba1-c64c-4480-9943-ac3f23e43912","name":"TOTAL BERLIN","brand":"TOTAL","street":"TEMPELHOFER UFER","place":"BERLIN","lat":52.500477,"lng":13.376696,"dist":3.3,"diesel":1.149,"e5":1.329,"e10":1.309,"isOpen":true,"houseNumber":"33-35","postCode":10963},{"id":"d40ad39a-73ba-476f-af0f-d8cfe3046dd7","name":"Aral Tankstelle","brand":"ARAL","street":"Brunnenstra\u00dfe","place":"Berlin","lat":52.5407867,"lng":13.3934574,"dist":3.4,"diesel":1.119,"e5":1.319,"e10":1.299,"isOpen":true,"houseNumber":"119","postCode":13355},{"id":"67978117-35b5-4089-a53a-9121ccfbb653","name":"GO Berlin Reuter Str.","brand":"GO","street":"Reuter Str.","place":"Berlin","lat":52.4846,"lng":13.4293,"dist":3.4,"diesel":1.119,"e5":1.319,"e10":1.299,"isOpen":true,"houseNumber":"18-19","postCode":12043},{"id":"cba00de3-9841-49ce-943c-0bcded76ba18","name":"TOTAL BERLIN","brand":"TOTAL","street":"CHAUSSEESTR.","place":"BERLIN","lat":52.537243,"lng":13.375377,"dist":3.9,"diesel":1.109,"e5":1.309,"e10":1.289,"isOpen":true,"houseNumber":"61-62","postCode":10115},{"id":"c3e4c888-767d-471e-bd5e-760eabc116c2","name":"Aral Tankstelle","brand":"ARAL","street":"Sonnenallee","place":"Berlin","lat":52.48148,"lng":13.44137,"dist":4,"diesel":1.129,"e5":1.329,"e10":1.309,"isOpen":true,"houseNumber":"113","postCode":12045},{"id":"51d4b708-a095-1aa0-e100-80009459e03a","name":"JET BERLIN KREUZBERGSTR. 42A","brand":"JET","street":"KREUZBERGSTR. 42A","place":"BERLIN","lat":52.4892,"lng":13.3746,"dist":4.2,"diesel":1.139,"e5":1.319,"e10":1.299,"isOpen":true,"houseNumber":"","postCode":10965},{"id":"78f4e4d2-355e-45d4-a02f-fd45adb5dcef","name":"Aral Tankstelle","brand":"ARAL","street":"Dudenstra\u00dfe","place":"Berlin","lat":52.4848938,"lng":13.3813658,"dist":4.2,"diesel":1.159,"e5":1.339,"e10":1.319,"isOpen":true,"houseNumber":"19","postCode":10965},{"id":"b3060ae1-10ad-4229-b2db-096372950f51","name":"TOTAL BERLIN","brand":"TOTAL","street":"HEIDESTR","place":"BERLIN","lat":52.534218,"lng":13.365195,"dist":4.3,"diesel":1.109,"e5":1.309,"e10":1.289,"isOpen":true,"houseNumber":"","postCode":10557},{"id":"2d356d6c-f4d2-4021-8d49-2afae0abde1f","name":"Esso Tankstelle","brand":"ESSO","street":"TEMPELHOFER DAMM 20","place":"BERLIN","lat":52.481391,"lng":13.385317,"dist":4.4,"diesel":1.149,"e5":1.329,"e10":1.309,"isOpen":true,"houseNumber":"","postCode":12101},{"id":"37ff6f07-a657-4aa8-8cfd-eedfccbffefe","name":"BERLIN, PAULSTRASSE 20.","brand":"Shell","street":"PAULSTR. 20","place":"BERLIN","lat":52.51986,"lng":13.355243,"dist":4.4,"diesel":1.129,"e5":1.309,"e10":1.269,"isOpen":true,"houseNumber":"","postCode":10557},{"id":"858d8d7c-1bf2-44ed-a33b-71185fce93ff","name":"Aral Tankstelle","brand":"ARAL","street":"Rathenower Stra\u00dfe","place":"Berlin","lat":52.52546,"lng":13.3568907,"dist":4.4,"diesel":1.139,"e5":1.309,"e10":1.289,"isOpen":true,"houseNumber":"8","postCode":10559},{"id":"8953fadc-921c-4040-959c-4c6bde9d9eae","name":"BERLIN, BUCHBERGER STR","brand":"Shell","street":"BUCHBERGER STR. 30","place":"BERLIN","lat":52.507044,"lng":13.485837,"dist":4.6,"diesel":1.089,"e5":1.279,"e10":1.249,"isOpen":true,"houseNumber":"","postCode":10365},{"id":"934fc007-1f0a-418f-9169-84cd1c6104da","name":"Esso Tankstelle","brand":"ESSO","street":"INDIRA-GANDHI-STR. 75","place":"BERLIN","lat":52.542891,"lng":13.469289,"dist":4.6,"diesel":1.099,"e5":1.279,"e10":1.259,"isOpen":true,"houseNumber":"","postCode":13053},{"id":"0591a60a-a167-4cc5-a200-c21d4a1e698e","name":"BERLIN, BERLINER STR. 83.","brand":"Shell","street":"BERLINER STR. 83 ESCHENGRABEN","place":"BERLIN","lat":52.556313,"lng":13.41506,"dist":4.6,"diesel":1.139,"e5":1.329,"e10":1.289,"isOpen":true,"houseNumber":"","postCode":13189},{"id":"e1a15081-2581-9107-e040-0b0a3dfe563c","name":"Berlin, M\u00fcllerstr. 168","brand":"HEM","street":"M\u00fcllerstr.","place":"Berlin","lat":52.542477,"lng":13.365372,"dist":4.8,"diesel":1.099,"e5":1.269,"e10":1.249,"isOpen":true,"houseNumber":"168","postCode":13353},{"id":"88641cd8-5ece-473d-8b04-7a0b06ee8a2e","name":"BERLIN, JUELICHER STR.","brand":"Shell","street":"JUELICHER STR. 1","place":"BERLIN","lat":52.554854,"lng":13.391877,"dist":4.8,"diesel":1.159,"e5":1.309,"e10":1.269,"isOpen":true,"houseNumber":"","postCode":13357},{"id":"51d4b660-a095-1aa0-e100-80009459e03a","name":"JET BERLIN HERZBERGSTR. 27","brand":"JET","street":"HERZBERGSTR. 27","place":"BERLIN","lat":52.5262,"lng":13.4886,"dist":4.8,"diesel":1.079,"e5":1.269,"e10":1.249,"isOpen":true,"houseNumber":"","postCode":10365},{"id":"a0f35e83-2d97-4bfb-b90e-f068fe8c73e1","name":"TOTAL BERLIN","brand":"TOTAL","street":"I.-GANDHI-STR.","place":"BERLIN","lat":52.5475,"lng":13.46808,"dist":4.9,"diesel":1.109,"e5":1.309,"e10":1.289,"isOpen":true,"houseNumber":"106-109","postCode":13053},{"id":"7d8ba49c-b9ec-4672-b76f-251b3065b9af","name":"ELAN BERLIN","brand":"ELAN","street":"TINO-SCHWIERZINA-STR","place":"BERLIN","lat":52.55841,"lng":13.432754,"dist":4.9,"diesel":1.119,"e5":1.309,"e10":1.289,"isOpen":true,"houseNumber":"37","postCode":13089},{"id":"51d4b4cf-a095-1aa0-e100-80009459e03a","name":"JET BERLIN PRENZLAUER PROMENADE 41-42","brand":"JET","street":"PRENZLAUER PROMENADE 41-42","place":"BERLIN","lat":52.5595,"lng":13.4287,"dist":5,"diesel":1.119,"e5":1.309,"e10":1.289,"isOpen":true,"houseNumber":"","postCode":13089},{"id":"c9dc3f9b-e10a-47b4-a3fe-451b2cb1daad","name":"Aral Tankstelle","brand":"ARAL","street":"Frankfurter Allee","place":"Berlin","lat":52.51144,"lng":13.4938612,"dist":5.1,"diesel":1.109,"e5":1.289,"e10":1.269,"isOpen":true,"houseNumber":"214","postCode":10365},{"id":"c1cb3a06-ea33-471b-a151-37eba5b29597","name":"BERLIN, PRINZENALLEE 20.","brand":"Shell","street":"PRINZENALLEE 20","place":"BERLIN","lat":52.555243,"lng":13.38423,"dist":5.1,"diesel":1.159,"e5":1.329,"e10":1.289,"isOpen":true,"houseNumber":"","postCode":13357},{"id":"a8764c1f-266e-4b0e-9b49-7bf88952cc13","name":"BERLIN, MUELLERSTR.","brand":"Shell","street":"MUELLERSTR. 22 B-23","place":"BERLIN","lat":52.545331,"lng":13.361596,"dist":5.2,"diesel":1.109,"e5":1.279,"e10":1.249,"isOpen":true,"houseNumber":"","postCode":13353},{"id":"6b2bd0b8-22db-424e-8547-c2abcfe06a6c","name":"Westfehling Tankstelle GmbH","brand":"","street":"Quitzowstrasse","place":"Berlin","lat":52.535336,"lng":13.350352,"dist":5.2,"diesel":1.099,"e5":1.269,"e10":1.249,"isOpen":true,"houseNumber":"33","postCode":10559},{"id":"51863198-2987-48b8-aa2e-dd949bc403dc","name":"TOTAL BERLIN","brand":"TOTAL","street":"BULGARISCHE STR.","place":"BERLIN","lat":52.483772,"lng":13.478669,"dist":5.3,"diesel":1.089,"e5":1.309,"e10":1.289,"isOpen":true,"houseNumber":"9","postCode":12435},{"id":"ea48ea88-561e-4b5a-87e5-9402768b367e","name":"Esso Tankstelle","brand":"ESSO","street":"LESSINGSTR. 4","place":"BERLIN","lat":52.519708,"lng":13.341412,"dist":5.3,"diesel":1.139,"e5":1.279,"e10":1.259,"isOpen":true,"houseNumber":"","postCode":10555},{"id":"58c009f1-4250-428a-b5de-0efd4b200177","name":"BERLIN, MARTIN-LUTHER-STR.","brand":"Shell","street":"MARTIN-LUTHER-STR. 29","place":"BERLIN","lat":52.496247,"lng":13.3466,"dist":5.3,"diesel":1.149,"e5":1.329,"e10":1.289,"isOpen":true,"houseNumber":"","postCode":10777},{"id":"51d4b477-a095-1aa0-e100-80009459e03a","name":"JET BERLIN SIEGFRIEDSTR. 179","brand":"JET","street":"SIEGFRIEDSTR. 179","place":"BERLIN","lat":52.5212,"lng":13.4992,"dist":5.4,"diesel":1.079,"e5":1.269,"e10":1.249,"isOpen":true,"houseNumber":"","postCode":10365},{"id":"ee1660c7-66d7-4ff4-a4e5-576cb0d3f017","name":"Aral Tankstelle","brand":"ARAL","street":"M\u00fchlenstra\u00dfe","place":"Berlin","lat":52.56369,"lng":13.4078369,"dist":5.5,"diesel":1.149,"e5":1.339,"e10":1.319,"isOpen":true,"houseNumber":"26","postCode":13187},{"id":"005056ba-7cb6-1ed2-bceb-8e5fec1a0d35","name":"star Tankstelle","brand":"STAR","street":"Siegfriedstra\u00dfe","place":"Berlin","lat":52.52438,"lng":13.49959,"dist":5.5,"diesel":1.079,"e5":1.269,"e10":1.249,"isOpen":true,"houseNumber":"170","postCode":10365},{"id":"51d4b4e0-a095-1aa0-e100-80009459e03a","name":"JET BERLIN KARL-MARX-STR. 259-263","brand":"JET","street":"KARL-MARX-STR. 259-263","place":"BERLIN","lat":52.46592,"lng":13.44297,"dist":5.7,"diesel":1.109,"e5":1.309,"e10":1.269,"isOpen":true,"houseNumber":"","postCode":12057},{"id":"990ccdb9-db59-460b-9326-0a532a623f44","name":"Esso Tankstelle","brand":"ESSO","street":"MARTIN-LUTHER-STR. 67","place":"BERLIN","lat":52.490066,"lng":13.34559,"dist":5.7,"diesel":1.149,"e5":1.329,"e10":1.309,"isOpen":true,"houseNumber":"","postCode":10779},{"id":"ae8a800a-788e-4264-8713-19053280ccbe","name":"BERLIN - WESTHAFENSTRASSE 1","brand":"Agip","street":"Westhafenstrasse","place":"Berlin","lat":52.53828412371,"lng":13.344086726212,"dist":5.7,"diesel":1.109,"e5":1.279,"e10":1.259,"isOpen":true,"houseNumber":"1","postCode":13353},{"id":"309acc6e-a0da-4a96-bb7f-5f68f06065b3","name":"BERLIN, KARL-MARX-STR.","brand":"Shell","street":"KARL-MARX-STR. 267","place":"BERLIN","lat":52.465242,"lng":13.443165,"dist":5.7,"diesel":1.159,"e5":1.339,"e10":1.299,"isOpen":true,"houseNumber":"","postCode":12057},{"id":"9209bab7-f487-4776-9f47-5ddbf7aebc97","name":"Aral Tankstelle","brand":"ARAL","street":"Grenzallee","place":"Berlin","lat":52.4690437,"lng":13.461875,"dist":5.8,"diesel":1.119,"e5":1.319,"e10":1.299,"isOpen":true,"houseNumber":"6","postCode":12057},{"id":"297fe76f-7c3d-4410-bea1-279834e6a36c","name":"Aral Tankstelle","brand":"ARAL","street":"Levetzowstra\u00dfe","place":"Berlin","lat":52.52094,"lng":13.3336287,"dist":5.8,"diesel":1.149,"e5":1.309,"e10":1.289,"isOpen":true,"houseNumber":"9","postCode":10555},{"id":"e1a15081-25ce-9107-e040-0b0a3dfe563c","name":"Berlin, Romain-Rolland-Str. 2","brand":"HEM","street":"Romain-Rolland-Str.","place":"Berlin","lat":52.564816,"lng":13.448848,"dist":5.9,"diesel":1.119,"e5":1.309,"e10":1.289,"isOpen":true,"houseNumber":"2","postCode":13089},{"id":"73f34ee9-64ab-4009-a092-575ce13ce326","name":"TOTAL BERLIN","brand":"TOTAL","street":"SCHOENEBERGER STR","place":"BERLIN","lat":52.470146,"lng":13.371984,"dist":5.9,"diesel":1.159,"e5":1.339,"e10":1.319,"isOpen":true,"houseNumber":"17","postCode":12103},{"id":"691e1860-c604-47c6-a568-1626d8478339","name":"BERLIN, SACHSENDAMM 90-92.","brand":"Shell","street":"SACHSENDAMM 90-92","place":"BERLIN","lat":52.478649,"lng":13.355071,"dist":5.9,"diesel":1.149,"e5":1.329,"e10":1.289,"isOpen":true,"houseNumber":"","postCode":10829},{"id":"2d3cf56e-d3a7-4d3f-9469-d1ba249a2fe3","name":"Sprint Berlin Residenzstr.","brand":"Sprint","street":"Residenzstr.","place":"Berlin","lat":52.558899,"lng":13.3703,"dist":5.9,"diesel":1.099,"e5":1.289,"e10":1.269,"isOpen":true,"houseNumber":"79","postCode":13409},{"id":"2020d9be-d9db-456f-9bd1-c72f3ad5d279","name":"Aral Tankstelle","brand":"ARAL","street":"Sch\u00f6neberger Str. \/ Alboi","place":"Berlin","lat":52.4700241,"lng":13.3710432,"dist":6,"diesel":1.159,"e5":1.339,"e10":1.319,"isOpen":true,"houseNumber":"","postCode":12103},{"id":"799e88d8-f4a6-4946-a00d-bd5303bb7fa6","name":"TOTAL BERLIN","brand":"TOTAL","street":"ROELCKESTR.","place":"BERLIN","lat":52.562492,"lng":13.4594755,"dist":6,"diesel":1.129,"e5":1.319,"e10":1.299,"isOpen":true,"houseNumber":"74-76","postCode":13088},{"id":"e1a15081-25cc-9107-e040-0b0a3dfe563c","name":"Berlin, Prenzlauer Promenade 68","brand":"HEM","street":"Prenzlauer Promenade","place":"Berlin","lat":52.568176,"lng":13.428553,"dist":6,"diesel":1.119,"e5":1.309,"e10":1.289,"isOpen":true,"houseNumber":"68","postCode":13089},{"id":"005056ba-7cb6-1ee5-b187-bc79c0a8d9ec","name":"Star Tankstelle","brand":"STAR","street":"Prenzlauer Promenade","place":"Berlin","lat":52.568855,"lng":13.428472,"dist":6,"diesel":1.119,"e5":1.309,"e10":1.289,"isOpen":true,"houseNumber":"70-73","postCode":13089},{"id":"005056ba-7cb6-1ee5-a8e8-3d3efcc90710","name":"Star Tankstelle","brand":"STAR","street":"Berliner Allee","place":"Berlin","lat":52.560802,"lng":13.467203,"dist":6.1,"diesel":1.099,"e5":1.299,"e10":1.279,"isOpen":true,"houseNumber":"257","postCode":13088},{"id":"451ba5c2-44b6-43a9-ab1e-aa6419ae6e74","name":"Aral Tankstelle","brand":"ARAL","street":"Seestra\u00dfe","place":"Berlin","lat":52.546402,"lng":13.3451872,"dist":6.1,"diesel":1.129,"e5":1.309,"e10":1.289,"isOpen":true,"houseNumber":"18\/19","postCode":13353},{"id":"12e6b614-87d4-4413-afd2-7dd783505ee8","name":"Engelke-Berlin","brand":"Engelke Energie","street":"Tempelhofer Weg","place":"Berlin","lat":52.4587,"lng":13.42211,"dist":6.2,"diesel":1.188,"e5":null,"e10":null,"isOpen":true,"houseNumber":"10","postCode":12099},{"id":"49d45108-e566-470e-aa7e-fd3c6590c683","name":"BERLIN, MANTEUFFELSTR.","brand":"Shell","street":"MANTEUFFELSTR. 6-7","place":"BERLIN","lat":52.464698,"lng":13.377153,"dist":6.3,"diesel":1.159,"e5":1.329,"e10":null,"isOpen":true,"houseNumber":"","postCode":12103},{"id":"05bf2390-5a6f-472c-aaca-d9b6a047a20c","name":"OIL! tank","brand":"OIL!","street":"Genslerstr. 69-72","place":"Berlin-Hohensch\u00f6nhausen","lat":52.5428,"lng":13.5006,"dist":6.3,"diesel":1.069,"e5":1.259,"e10":1.239,"isOpen":true,"houseNumber":"","postCode":13055},{"id":"b0d8aa54-047d-40ee-99ee-9542bcfaba63","name":"BERLIN, ROTHENBACHSTR","brand":"Shell","street":"ROTHENBACHSTR. 1","place":"BERLIN","lat":52.571592,"lng":13.429518,"dist":6.4,"diesel":1.139,"e5":1.319,"e10":1.279,"isOpen":true,"houseNumber":"","postCode":13089},{"id":"fcd55ae4-58c8-4fb0-9b60-eec06dd4b746","name":"Aral Tankstelle","brand":"ARAL","street":"Beusselstra\u00dfe","place":"Berlin","lat":52.53262,"lng":13.3298349,"dist":6.4,"diesel":1.129,"e5":1.299,"e10":1.279,"isOpen":true,"houseNumber":"55","postCode":10553},{"id":"839b3753-1bd3-4eb8-bc0f-26fe6a33f356","name":"BERLIN, BUNDESALLEE","brand":"Shell","street":"BUNDESALLEE 200","place":"BERLIN","lat":52.492936,"lng":13.331354,"dist":6.4,"diesel":1.169,"e5":1.309,"e10":1.269,"isOpen":true,"houseNumber":"","postCode":10717},{"id":"421d02ac-318f-432f-886b-3a092b9ccfa8","name":"TOTAL BERLIN","brand":"TOTAL","street":"MARKSTR.","place":"BERLIN","lat":52.562286,"lng":13.36506,"dist":6.4,"diesel":1.109,"e5":1.309,"e10":1.289,"isOpen":true,"houseNumber":"43-44","postCode":13409},{"id":"0ea9ba22-ae3b-495e-8fc7-20c286bf527a","name":"Esso Tankstelle","brand":"ESSO","street":"TEMPELHOFER WEG 32","place":"BERLIN","lat":52.456841,"lng":13.426262,"dist":6.5,"diesel":1.159,"e5":1.339,"e10":1.319,"isOpen":true,"houseNumber":"","postCode":12347},{"id":"7cbddee6-be90-4954-b392-19467cdbd1e4","name":"BERLIN, DAMEROWSTR.","brand":"Shell","street":"DAMEROWSTR. 22\/23","place":"BERLIN","lat":52.57286,"lng":13.421184,"dist":6.5,"diesel":1.139,"e5":1.319,"e10":1.279,"isOpen":true,"houseNumber":"","postCode":13187},{"id":"057a6924-d3a7-4ff3-8c9e-1be2e52c3142","name":"Sprint Berlin Blankenburger Str.","brand":"Sprint","street":"Blankenburger Str.","place":"Berlin","lat":52.571098,"lng":13.4433,"dist":6.5,"diesel":1.119,"e5":1.309,"e10":1.289,"isOpen":true,"houseNumber":"96-99","postCode":13089},{"id":"c25b41ba-fb14-4126-9820-67c63956629c","name":"TOTAL BERLIN","brand":"TOTAL","street":"BRITZER DAMM","place":"BERLIN","lat":52.457047,"lng":13.436356,"dist":6.5,"diesel":1.159,"e5":1.339,"e10":1.319,"isOpen":true,"houseNumber":"60-62","postCode":12347},{"id":"29fbf460-4688-457c-b104-e3e52e4fc400","name":"BERLIN, KAISERIN-AUGUSTE-ALLEE","brand":"Shell","street":"KAISERIN-AUGUSTE-ALLEE 9-9 A","place":"BERLIN","lat":52.525562,"lng":13.32434,"dist":6.5,"diesel":1.149,"e5":1.299,"e10":1.279,"isOpen":true,"houseNumber":"","postCode":10553},{"id":"f3c0c60e-7709-486b-a7d8-eea21ad0c2d9","name":"Berlin, Fraunhofer Stra\u00dfe 33-36","brand":"SB","street":"Fraunhofer Stra\u00dfe 33-36","place":"Berlin","lat":52.5144,"lng":13.3219,"dist":6.6,"diesel":1.079,"e5":1.269,"e10":1.239,"isOpen":true,"houseNumber":"","postCode":10587},{"id":"e2fc30d5-dfd7-43e8-b61d-16ba4cb0fc01","name":"TOTAL BERLIN","brand":"TOTAL","street":"BLOCKDAMMWEG","place":"BERLIN","lat":52.48291,"lng":13.502177,"dist":6.6,"diesel":1.109,"e5":1.309,"e10":1.289,"isOpen":true,"houseNumber":"6","postCode":10317},{"id":"e1a15081-24c8-9107-e040-0b0a3dfe563c","name":"Berlin, Berliner Allee 320","brand":"HEM","street":"Berliner Allee","place":"Berlin","lat":52.565453,"lng":13.472317,"dist":6.7,"diesel":1.099,"e5":1.299,"e10":1.279,"isOpen":true,"houseNumber":"320","postCode":13088},{"id":"c63778f4-9194-470d-be85-d5798acf5a2f","name":"Esso Tankstelle","brand":"ESSO","street":"BUNDESALLEE 176","place":"BERLIN","lat":52.486417,"lng":13.331537,"dist":6.7,"diesel":1.169,"e5":1.309,"e10":1.289,"isOpen":true,"houseNumber":"","postCode":10715},{"id":"eb122029-e957-4417-b06d-5d2d168e05a2","name":"BERLIN, RUMMELSBUR.LDSTR.16.","brand":"Shell","street":"RUMMELSBURGER LANDSTR. 16","place":"BERLIN","lat":52.480922,"lng":13.502139,"dist":6.7,"diesel":1.109,"e5":1.299,"e10":1.259,"isOpen":true,"houseNumber":"","postCode":12459},{"id":"09c46b5b-20c0-4dcf-a4d4-e6c67f6d5bb0","name":"Aral Tankstelle","brand":"ARAL","street":"Bismarckstra\u00dfe","place":"Berlin","lat":52.51281,"lng":13.3197422,"dist":6.7,"diesel":1.119,"e5":1.299,"e10":1.279,"isOpen":true,"houseNumber":"2","postCode":10625},{"id":"ef0a079d-8e57-46dc-bef4-37da56cf7c1c","name":"SB-Markttankstelle Berlin Bessemer Str.","brand":"SB-Markttankstelle","street":"Bessemer Str.","place":"Berlin","lat":52.4627,"lng":13.3672,"dist":6.8,"diesel":1.139,"e5":1.319,"e10":1.299,"isOpen":true,"houseNumber":"57","postCode":12103},{"id":"10b14d7c-fac9-442b-8d80-b57d877d6d24","name":"BERLIN, BEUSSELSTR.","brand":"Shell","street":"BEUSSELSTR. 44","place":"BERLIN","lat":52.535574,"lng":13.324845,"dist":6.8,"diesel":1.109,"e5":1.279,"e10":1.249,"isOpen":true,"houseNumber":"","postCode":10553},{"id":"5e2048bb-5930-473d-a1eb-98b56934286b","name":"TOTAL BERLIN","brand":"TOTAL","street":"RHINSTRASSE","place":"BERLIN","lat":52.51838,"lng":13.520045,"dist":6.8,"diesel":1.089,"e5":1.279,"e10":1.259,"isOpen":true,"houseNumber":"52","postCode":12681},{"id":"b35a4dd6-fb1e-4acc-aed9-9af0bb0c6c3e","name":"BERLIN, HAUPTSTR.","brand":"Shell","street":"HAUPTSTR. 91","place":"BERLIN","lat":52.476001,"lng":13.341226,"dist":6.8,"diesel":1.149,"e5":1.329,"e10":1.289,"isOpen":true,"houseNumber":"","postCode":12159},{"id":"005056ba-7cb6-1ed2-bceb-9326bdff0d38","name":"star Tankstelle","brand":"STAR","street":"Rhinstra\u00dfe","place":"Berlin","lat":52.52353,"lng":13.51945,"dist":6.8,"diesel":1.079,"e5":1.269,"e10":1.249,"isOpen":true,"houseNumber":"47","postCode":10315},{"id":"2397804d-4de1-47bc-b1e8-d135255325f9","name":"Aral Tankstelle","brand":"ARAL","street":"Buschkrugallee","place":"Berlin","lat":52.45589,"lng":13.4496412,"dist":6.9,"diesel":1.159,"e5":1.339,"e10":1.319,"isOpen":true,"houseNumber":"84-92","postCode":12359},{"id":"005056ba-7cb6-1ed2-bceb-aaf1f2c40d43","name":"star Tankstelle","brand":"STAR","street":"Malchower Chaussee","place":"Berlin","lat":52.56726,"lng":13.47443,"dist":6.9,"diesel":1.099,"e5":1.299,"e10":1.279,"isOpen":true,"houseNumber":"1","postCode":13088},{"id":"005056ba-7cb6-1ed5-a6a1-930ae49a5411","name":"Star Tankstelle","brand":"STAR","street":"Hansastra\u00dfe","place":"Berlin","lat":52.55885,"lng":13.491724,"dist":6.9,"diesel":1.079,"e5":1.269,"e10":1.249,"isOpen":true,"houseNumber":"199-201","postCode":13088},{"id":"ade023de-dad0-40e7-bcc3-0a25e9a85c77","name":"TOTAL BERLIN","brand":"TOTAL","street":"RHINSTRASSE","place":"BERLIN","lat":52.53669,"lng":13.51541,"dist":6.9,"diesel":1.089,"e5":1.279,"e10":1.259,"isOpen":true,"houseNumber":"175","postCode":13053},{"id":"67da24c9-84ef-4505-8e4b-d1c72e9554ce","name":"Sprint Berlin Lietzenburger Str.","brand":"Sprint","street":"Lietzenburger Str.","place":"Berlin","lat":52.4995,"lng":13.3196,"dist":7,"diesel":1.169,"e5":1.349,"e10":1.329,"isOpen":true,"houseNumber":"97","postCode":10719},{"id":"cdbcaf0e-8d53-4031-928d-3b43978d47ec","name":"Berlin Rhinstra\u00dfe","brand":"Mr. Wash Autoservice AG","street":"Rhinstra\u00dfe","place":"Berlin","lat":52.5314026,"lng":13.5192603,"dist":7,"diesel":1.079,"e5":1.269,"e10":1.249,"isOpen":true,"houseNumber":"136","postCode":12681},{"id":"51d4b57f-a095-1aa0-e100-80009459e03a","name":"JET BERLIN RHINSTR. 240","brand":"JET","street":"RHINSTR. 240","place":"BERLIN","lat":52.5473,"lng":13.5092,"dist":7.1,"diesel":1.079,"e5":1.269,"e10":1.249,"isOpen":true,"houseNumber":"","postCode":13055},{"id":"6ab6f8d4-e9f1-4c73-8a20-852b8cd73bc4","name":"Aral Tankstelle","brand":"ARAL","street":"Hauptstra\u00dfe","place":"Berlin","lat":52.4741135,"lng":13.3388691,"dist":7.1,"diesel":1.149,"e5":1.329,"e10":1.309,"isOpen":true,"houseNumber":"86","postCode":12159},{"id":"b3c8a1cf-a877-4367-87f6-0f4894742501","name":"Aral Tankstelle","brand":"ARAL","street":"Residenzstra\u00dfe","place":"Berlin","lat":52.5683136,"lng":13.3618641,"dist":7.1,"diesel":1.119,"e5":1.299,"e10":1.279,"isOpen":true,"houseNumber":"29","postCode":13409},{"id":"e77d4685-53bf-4241-9cbe-2dd8feaea93a","name":"BERLIN, TEMPELHOFER WEG","brand":"Shell","street":"TEMPELHOFER WEG 102","place":"BERLIN","lat":52.450566,"lng":13.43448,"dist":7.2,"diesel":1.159,"e5":1.339,"e10":1.299,"isOpen":true,"houseNumber":"","postCode":12347},{"id":"005056ba-7cb6-1ed2-bceb-8f11d216cd35","name":"star Tankstelle","brand":"STAR","street":"Hansastr.","place":"Berlin","lat":52.55996,"lng":13.49641,"dist":7.2,"diesel":1.079,"e5":1.269,"e10":1.249,"isOpen":true,"houseNumber":"220","postCode":13051},{"id":"95bfae72-560c-431f-82a1-6cf73a1ef456","name":"TOTAL BERLIN","brand":"TOTAL","street":"SPAETHSTR.","place":"BERLIN","lat":52.453354,"lng":13.45764,"dist":7.3,"diesel":1.159,"e5":1.339,"e10":1.319,"isOpen":true,"houseNumber":"158","postCode":12359},{"id":"51d4b47d-a095-1aa0-e100-80009459e03a","name":"JET BERLIN AM TIERPARK 126","brand":"JET","street":"AM TIERPARK 126","place":"BERLIN","lat":52.49549,"lng":13.52344,"dist":7.4,"diesel":1.089,"e5":1.269,"e10":1.249,"isOpen":true,"houseNumber":"","postCode":10319},{"id":"5f379d51-e2c8-47d8-bf3e-807e7f3737a7","name":"TOTAL BERLIN","brand":"TOTAL","street":"LANDSBERGER ALLEE","place":"BERLIN","lat":52.535397,"lng":13.522849,"dist":7.4,"diesel":1.089,"e5":1.279,"e10":1.259,"isOpen":true,"houseNumber":"376","postCode":12681},{"id":"0161d940-ebc3-4b74-a513-89322bef9e76","name":"Freie Tankstelle","brand":"Tankstelle","street":"Mariendorfer Damm","place":"Berlin","lat":52.4519,"lng":13.385,"dist":7.4,"diesel":1.149,"e5":1.329,"e10":1.309,"isOpen":true,"houseNumber":"11\/13","postCode":12109},{"id":"e1a15081-257b-9107-e040-0b0a3dfe563c","name":"Berlin, Stra\u00dfe vor Sch\u00f6nholz 3","brand":"HEM","street":"Stra\u00dfe vor Sch\u00f6nholz","place":"Berlin","lat":52.576523,"lng":13.378789,"dist":7.4,"diesel":1.119,"e5":1.299,"e10":1.279,"isOpen":true,"houseNumber":"3","postCode":13158},{"id":"2d305897-e4a6-4f3f-b925-6d755293d9e7","name":"TOTAL BERLIN","brand":"TOTAL","street":"ARNULFSTR.","place":"BERLIN","lat":52.455578,"lng":13.367255,"dist":7.5,"diesel":1.159,"e5":1.339,"e10":1.319,"isOpen":true,"houseNumber":"98-99","postCode":12105},{"id":"285aaf2a-f363-4c83-9fd2-4c9cc34833b2","name":"TOTAL BERLIN","brand":"TOTAL","street":"RIBNITZER STR.","place":"BERLIN","lat":52.565598,"lng":13.491795,"dist":7.5,"diesel":1.109,"e5":1.309,"e10":1.289,"isOpen":true,"houseNumber":"42","postCode":13051},{"id":"d92ca5b1-c981-4e22-b762-e6097075940d","name":"Aral Tankstelle","brand":"ARAL","street":"Blissestra\u00dfe","place":"Berlin","lat":52.4843254,"lng":13.3206711,"dist":7.5,"diesel":1.179,"e5":1.329,"e10":1.309,"isOpen":true,"houseNumber":"21","postCode":10713},{"id":"c7565063-01dd-4181-82a9-a9012f2380ae","name":"bft Tankstelle","brand":"bft","street":"Blankenburger Stra\u00dfe","place":"Berlin","lat":52.582,"lng":13.4096,"dist":7.5,"diesel":1.119,"e5":1.319,"e10":1.299,"isOpen":true,"houseNumber":"36","postCode":13156},{"id":"a5b33c1b-c346-444b-8689-8c8087834dcb","name":"TOTAL BERLIN","brand":"TOTAL","street":"AM FEUCHTEN WINKEL","place":"BERLIN","lat":52.58205,"lng":13.43239,"dist":7.5,"diesel":1.129,"e5":1.319,"e10":1.299,"isOpen":true,"houseNumber":"11","postCode":13127},{"id":"e1a15081-24ce-9107-e040-0b0a3dfe563c","name":"Berlin, Alt-Friedrichsfelde 61","brand":"TAMOIL","street":"Alt-Friedrichsfelde","place":"Berlin","lat":52.509624,"lng":13.531036,"dist":7.6,"diesel":1.089,"e5":1.279,"e10":1.259,"isOpen":true,"houseNumber":"61","postCode":10315},{"id":"de2e2b16-448e-439a-a544-b45c685431ae","name":"TOTAL BERLIN","brand":"TOTAL","street":"WACKENBERGSTR.","place":"BERLIN","lat":52.582893,"lng":13.4042845,"dist":7.6,"diesel":1.129,"e5":1.329,"e10":1.309,"isOpen":true,"houseNumber":"2","postCode":13156},{"id":"220661c8-e1f3-4308-8a02-85248dd58d76","name":"Aral Tankstelle","brand":"ARAL","street":"K\u00f6penicker Landstr.","place":"Berlin","lat":52.4647026,"lng":13.4969921,"dist":7.7,"diesel":1.099,"e5":1.289,"e10":1.269,"isOpen":true,"houseNumber":"294,","postCode":12437},{"id":"005056ba-7cb6-1ed2-bceb-9f68394dcd3d","name":"star Tankstelle","brand":"STAR","street":"Gehrenseestrasse","place":"Berlin","lat":52.55161,"lng":13.51533,"dist":7.7,"diesel":1.079,"e5":1.269,"e10":1.249,"isOpen":true,"houseNumber":"10","postCode":13053},{"id":"bd3536ff-83ee-4055-a5e8-0dc891dc2ea6","name":"Esso Tankstelle","brand":"ESSO","street":"MARIENDORFER DAMM 44","place":"BERLIN","lat":52.448913,"lng":13.384674,"dist":7.7,"diesel":1.159,"e5":1.339,"e10":1.319,"isOpen":true,"houseNumber":"","postCode":12109},{"id":"2785a39e-faaa-4575-83d9-311e4c70b2b9","name":"Aral Tankstelle","brand":"ARAL","street":"Britzer Damm","place":"Berlin","lat":52.44506,"lng":13.4333715,"dist":7.8,"diesel":1.159,"e5":1.339,"e10":1.319,"isOpen":true,"houseNumber":"202-204","postCode":12347},{"id":"7d5bdc50-efca-428b-90fd-c653ba7f3b66","name":"Aral Tankstelle","brand":"ARAL","street":"Westfaelische Stra\u00dfe","place":"Berlin","lat":52.49251,"lng":13.3092852,"dist":7.9,"diesel":1.179,"e5":1.329,"e10":1.309,"isOpen":true,"houseNumber":"9-10","postCode":10709},{"id":"005056ba-7cb6-1ee5-b791-639597361b11","name":"star Tankstelle","brand":"STAR","street":"Otto-Suhr-Allee 132","place":"Berlin","lat":52.518906,"lng":13.302904,"dist":7.9,"diesel":1.079,"e5":1.269,"e10":1.249,"isOpen":true,"houseNumber":"132","postCode":10585},{"id":"0078a29d-7ef3-4425-9b07-fafa3925af1e","name":"Esso Tankstelle","brand":"ESSO","street":"HOLLAENDERSTR. 52","place":"BERLIN","lat":52.564594,"lng":13.335623,"dist":7.9,"diesel":1.099,"e5":1.279,"e10":1.259,"isOpen":true,"houseNumber":"","postCode":13407},{"id":"308786e0-9dfd-4f90-b0a3-dd6ab1ce9f97","name":"Aral Tankstelle","brand":"ARAL","street":"Pasewalker Stra\u00dfe","place":"Berlin","lat":52.58615,"lng":13.4299278,"dist":8,"diesel":1.129,"e5":1.339,"e10":1.319,"isOpen":true,"houseNumber":"110","postCode":13127},{"id":"064554c1-d960-444e-bc1b-0a0449711e44","name":"BERLIN, KAISER-FRIEDR.STR95.","brand":"Shell","street":"KAISER-FRIEDRICH-STR. 95","place":"BERLIN","lat":52.515933,"lng":13.301201,"dist":8,"diesel":1.089,"e5":1.279,"e10":1.249,"isOpen":true,"houseNumber":"","postCode":10585},{"id":"32f0afb4-754d-4ed9-af3c-26fc210d306f","name":"Sprint Berlin Koernerstr.","brand":"Sprint","street":"Koernerstr.","place":"Berlin","lat":52.4645,"lng":13.3348,"dist":8,"diesel":1.139,"e5":1.319,"e10":1.299,"isOpen":true,"houseNumber":"48 a","postCode":12157},{"id":"7d1662e8-1f17-4332-b790-6dacc044a0a3","name":"Aral Tankstelle","brand":"ARAL","street":"Kaiser-Friedrich-Str.","place":"Berlin","lat":52.50778,"lng":13.3015862,"dist":8,"diesel":1.129,"e5":1.309,"e10":1.289,"isOpen":true,"houseNumber":"45B","postCode":10627},{"id":"005056ba-7cb6-1ed2-bceb-6d89eb120d20","name":"star Tankstelle","brand":"STAR","street":"Kaiser-Friedrich-Stra\u00dfe","place":"Berlin","lat":52.51742,"lng":13.3007,"dist":8,"diesel":1.079,"e5":1.269,"e10":1.249,"isOpen":true,"houseNumber":"102","postCode":10585},{"id":"5c881fbf-572e-4b35-b9c4-fccd66c11916","name":"Aral Tankstelle","brand":"ARAL","street":"Alt-Friedrichsfelde","place":"Berlin","lat":52.5103149,"lng":13.5384874,"dist":8.1,"diesel":1.109,"e5":1.289,"e10":1.269,"isOpen":true,"houseNumber":"64","postCode":12683},{"id":"85a9065b-7306-4e39-b818-b240b1f223dd","name":"Aral Tankstelle","brand":"ARAL","street":"Scharnweberstra\u00dfe","place":"Berlin","lat":52.5633736,"lng":13.3298874,"dist":8.1,"diesel":1.119,"e5":1.289,"e10":1.269,"isOpen":true,"houseNumber":"12-13","postCode":13405},{"id":"e75cdbaa-4847-4358-b6f6-dd0aea283bb8","name":"Sprint Berlin Mecklenburgische Str.","brand":"Sprint","street":"Mecklenburgische Str.","place":"Berlin","lat":52.4804,"lng":13.3135,"dist":8.1,"diesel":1.159,"e5":1.339,"e10":1.319,"isOpen":true,"houseNumber":"76","postCode":10713},{"id":"7d979083-b588-4513-81a1-86451ce5c7a0","name":"Aral Tankstelle","brand":"ARAL","street":"M\u00e4rkische Allee","place":"Berlin","lat":52.5320244,"lng":13.5363054,"dist":8.1,"diesel":1.109,"e5":1.289,"e10":1.269,"isOpen":true,"houseNumber":"155","postCode":12681},{"id":"834adf75-8c11-40ab-ac61-7f199cc3b98f","name":"BERLIN, HOHENZOLLERNDAMM","brand":"Shell","street":"HOHENZOLLERNDAMM 41","place":"BERLIN","lat":52.488755,"lng":13.306973,"dist":8.1,"diesel":1.169,"e5":1.309,"e10":1.269,"isOpen":true,"houseNumber":"","postCode":10713},{"id":"e1a15081-2580-9107-e040-0b0a3dfe563c","name":"Berlin, Attilastr. 124","brand":"HEM","street":"Attilastr.","place":"Berlin","lat":52.449085,"lng":13.366024,"dist":8.2,"diesel":1.139,"e5":1.319,"e10":1.299,"isOpen":true,"houseNumber":"124","postCode":12105},{"id":"517d50ad-c20a-451a-9683-42b3038656a3","name":"Berlin M\u00e4rkische Allee","brand":"SB","street":"M\u00e4rkische Allee 61","place":"Berlin Marzahn","lat":52.5217,"lng":13.5404,"dist":8.2,"diesel":1.079,"e5":1.269,"e10":1.239,"isOpen":true,"houseNumber":"","postCode":12681},{"id":"51d4b703-a095-1aa0-e100-80009459e03a","name":"JET BERLIN KURT-SCHUMACHER-DAMM 36","brand":"JET","street":"KURT-SCHUMACHER-DAMM 36","place":"BERLIN","lat":52.5611,"lng":13.3241,"dist":8.3,"diesel":1.089,"e5":1.269,"e10":1.249,"isOpen":true,"houseNumber":"","postCode":13405},{"id":"e1a15081-25af-9107-e040-0b0a3dfe563c","name":"Berlin, Saatwinkler Damm 62","brand":"HEM","street":"Saatwinkler Damm","place":"Berlin","lat":52.547394,"lng":13.309628,"dist":8.3,"diesel":1.079,"e5":1.269,"e10":1.249,"isOpen":true,"houseNumber":"62","postCode":13627},{"id":"2649945f-a5f3-4eec-b250-8a3833de4e59","name":"BERLIN, BERGSTR.","brand":"Shell","street":"BERGSTR. 31\/32","place":"BERLIN","lat":52.458362,"lng":13.33886,"dist":8.3,"diesel":1.159,"e5":1.329,"e10":1.289,"isOpen":true,"houseNumber":"","postCode":12169},{"id":"a2579857-ae4f-4a1e-b72d-b456f068a03b","name":"Aral Tankstelle","brand":"ARAL","street":"Schnellerstra\u00dfe","place":"Berlin","lat":52.45982,"lng":13.5044146,"dist":8.4,"diesel":1.099,"e5":1.289,"e10":1.269,"isOpen":true,"houseNumber":"20","postCode":12439},{"id":"5f0a857d-a161-40bf-a3a0-28e564951ec2","name":"Bavaria Petrol","brand":"Bavaria Petrol","street":"Heilbronner Stra\u00dfe","place":"Berlin","lat":52.50183,"lng":13.2943878,"dist":8.6,"diesel":1.159,"e5":1.299,"e10":1.279,"isOpen":true,"houseNumber":"14-15","postCode":10711},{"id":"005056ba-7cb6-1ed2-bceb-6dbab19bed20","name":"star Tankstelle","brand":"STAR","street":"Steglitzer Damm","place":"Berlin","lat":52.44971,"lng":13.35022,"dist":8.6,"diesel":1.139,"e5":1.319,"e10":1.299,"isOpen":true,"houseNumber":"77","postCode":12169},{"id":"005056ba-7cb6-1ed5-b4ff-3c304f8bcda6","name":"Star Tankstelle","brand":"STAR","street":"Pablo-Picasso-Stra\u00dfe","place":"Berlin","lat":52.55723,"lng":13.527176,"dist":8.7,"diesel":1.079,"e5":1.269,"e10":1.249,"isOpen":true,"houseNumber":"50","postCode":13057},{"id":"81f1b85f-4463-48b6-8856-1144622984da","name":"Aral Tankstelle","brand":"ARAL","street":"Roedernallee","place":"Berlin","lat":52.57913,"lng":13.3463917,"dist":8.7,"diesel":1.139,"e5":1.309,"e10":1.289,"isOpen":true,"houseNumber":"179","postCode":13407},{"id":"7aeee46e-e371-445e-8d07-0184c3369e04","name":"Tankcenter BERLIN","brand":"Tankcenter","street":"BITTERFELDER STR.","place":"BERLIN","lat":52.556427,"lng":13.528261,"dist":8.7,"diesel":1.079,"e5":1.269,"e10":1.249,"isOpen":true,"houseNumber":"29","postCode":12681},{"id":"01f3c507-57b8-4938-9266-4c441f2ffee8","name":"BERLIN, OLLENHAUERSTR.","brand":"Shell","street":"OLLENHAUERSTR. 101","place":"BERLIN","lat":52.571018,"lng":13.329978,"dist":8.7,"diesel":1.099,"e5":1.279,"e10":1.249,"isOpen":true,"houseNumber":"","postCode":13403},{"id":"dea1b192-e5ff-4d70-9791-689ef5c65247","name":"Sprint Berlin Gruener Weg","brand":"Sprint","street":"Gruener Weg","place":"Berlin","lat":52.4384,"lng":13.4526,"dist":8.8,"diesel":1.159,"e5":1.329,"e10":1.309,"isOpen":true,"houseNumber":"75","postCode":12359},{"id":"0dfc9f27-f9fe-40e6-b9ac-48317fba274d","name":"Aral Tankstelle","brand":"ARAL","street":"Suedwestkorso","place":"Berlin","lat":52.4684372,"lng":13.3112888,"dist":9,"diesel":1.169,"e5":1.309,"e10":1.289,"isOpen":true,"houseNumber":"36A","postCode":14197},{"id":"a83c2eae-4dd5-4cab-8172-d50ca036589a","name":"BERLIN, DIETZGENSTRASSE","brand":"Agip","street":"Dietzgenstr.","place":"Berlin","lat":52.594683874958,"lng":13.402918946082,"dist":9,"diesel":1.129,"e5":1.329,"e10":1.309,"isOpen":true,"houseNumber":"127","postCode":13158},{"id":"d7cbdead-65f0-44a5-b8c1-15989e230549","name":"BERLIN, MARIENDORFER DAMM","brand":"Shell","street":"MARIENDORFER DAMM 170\/172","place":"BERLIN","lat":52.436144,"lng":13.388401,"dist":9,"diesel":1.159,"e5":1.339,"e10":1.299,"isOpen":true,"houseNumber":"","postCode":12107},{"id":"bf2c17e7-5ce8-4ed4-8c86-d3af09e18ef5","name":"Aral Tankstelle","brand":"ARAL","street":"Kurfuerstendamm","place":"Berlin","lat":52.4958038,"lng":13.2876053,"dist":9.2,"diesel":1.169,"e5":1.309,"e10":1.289,"isOpen":true,"houseNumber":"128","postCode":10711},{"id":"81f0bcf4-79f6-4c32-9845-8b31129e8885","name":"Aral Tankstelle","brand":"ARAL","street":"Mariendorfer Damm","place":"Berlin","lat":52.4340363,"lng":13.3905706,"dist":9.2,"diesel":1.159,"e5":1.339,"e10":1.319,"isOpen":true,"houseNumber":"195","postCode":12107},{"id":"62a8e2c0-abf3-4716-9cd9-d145e112c585","name":"BERLIN, RUDOWER STR.","brand":"Shell","street":"RUDOWER STR. 102","place":"BERLIN","lat":52.435962,"lng":13.465448,"dist":9.3,"diesel":1.169,"e5":1.339,"e10":1.299,"isOpen":true,"houseNumber":"","postCode":12351},{"id":"1b599ba4-a1b5-4689-b98f-24b11b681e55","name":"Union Zapfstelle BERLIN","brand":"Union Zapfstelle","street":"MICHAEL-BRUECKNER-STR.","place":"BERLIN","lat":52.4533,"lng":13.513482,"dist":9.3,"diesel":1.079,"e5":1.269,"e10":1.249,"isOpen":true,"houseNumber":"26-31","postCode":12439},{"id":"51d4b6a4-a095-1aa0-e100-80009459e03a","name":"JET BERLIN MICHAEL- BRUECKNER- STR. 25","brand":"JET","street":"MICHAEL- BRUECKNER- STR. 25","place":"BERLIN","lat":52.45322,"lng":13.51373,"dist":9.4,"diesel":1.079,"e5":1.269,"e10":1.249,"isOpen":true,"houseNumber":"","postCode":12439},{"id":"3f994deb-104c-46e0-995b-f6806c3143d9","name":"Aral Tankstelle","brand":"ARAL","street":"Messedamm","place":"Berlin","lat":52.5096,"lng":13.2813253,"dist":9.4,"diesel":1.129,"e5":1.309,"e10":1.289,"isOpen":true,"houseNumber":"6","postCode":14057},{"id":"ddc143a0-49b2-40a9-a6de-29c009a6c1c1","name":"Esso Tankstelle","brand":"ESSO","street":"HUBERTUSALLEE 1-3","place":"BERLIN","lat":52.494197,"lng":13.284873,"dist":9.4,"diesel":1.169,"e5":1.309,"e10":1.289,"isOpen":true,"houseNumber":"","postCode":14193},{"id":"1ca3b827-3d5c-4037-b3ff-d5f6a0e72bb0","name":"BERLIN, SCHARNWEBERSTR79\/81","brand":"Shell","street":"SCHARNWEBERSTR. 79\/81","place":"BERLIN","lat":52.567767,"lng":13.309796,"dist":9.5,"diesel":1.119,"e5":1.279,"e10":1.259,"isOpen":true,"houseNumber":"","postCode":13405},{"id":"341c9b9a-3e55-4405-8bbe-6f31ef949ea7","name":"BERLIN, GROSSBEERENSTR.82-88.","brand":"Shell","street":"GROSSBEERENSTR. 82-88","place":"BERLIN","lat":52.43349,"lng":13.377298,"dist":9.5,"diesel":1.159,"e5":1.339,"e10":1.299,"isOpen":true,"houseNumber":"","postCode":12107},{"id":"45f674b4-f27e-4fe8-8b2d-0a94e230418a","name":"BERLIN, LETTERHAUSWEG","brand":"Shell","street":"LETTERHAUSWEG 2","place":"BERLIN","lat":52.534381,"lng":13.283034,"dist":9.5,"diesel":1.089,"e5":1.279,"e10":1.259,"isOpen":true,"houseNumber":"","postCode":13627},{"id":"d5bcbb8b-47a9-4060-9457-b90d2488319c","name":"Aral Tankstelle","brand":"ARAL","street":"Kaiser-Wilhelm-Stra\u00dfe","place":"Berlin","lat":52.43983,"lng":13.3512516,"dist":9.5,"diesel":1.169,"e5":1.349,"e10":1.329,"isOpen":true,"houseNumber":"117","postCode":12247},{"id":"c67bf0d0-fcab-4b22-bc35-ba9da8a2edae","name":"BERLIN - BAT AVUS NORDSCHLEIFE - A1","brand":"Agip","street":"Bat Avus Nordschleife","place":"Berlin","lat":52.502090939986,"lng":13.279815263678,"dist":9.6,"diesel":1.209,"e5":1.389,"e10":1.369,"isOpen":true,"houseNumber":"","postCode":14055},{"id":"68235d5e-60f6-40ed-9e66-b5ea60adc1dd","name":"BERLIN, BERLINER STR. 32.","brand":"Shell","street":"BERLINER STR. 32","place":"BERLIN","lat":52.600956,"lng":13.432466,"dist":9.6,"diesel":1.129,"e5":1.329,"e10":1.289,"isOpen":true,"houseNumber":"","postCode":13127},{"id":"005056ba-7cb6-1ed2-bceb-99abbf748d3b","name":"star Tankstelle","brand":"STAR","street":"Johannisthaler Ch.","place":"Berlin","lat":52.43192,"lng":13.46073,"dist":9.6,"diesel":1.149,"e5":1.329,"e10":1.309,"isOpen":true,"houseNumber":"263-273","postCode":12351},{"id":"19adfb9d-003d-4e7c-abd9-351d5ca521b6","name":"BERLIN, KAISERDAMM","brand":"Shell","street":"KAISERDAMM 34","place":"BERLIN","lat":52.510033,"lng":13.277142,"dist":9.6,"diesel":1.129,"e5":1.299,"e10":1.279,"isOpen":true,"houseNumber":"","postCode":14057},{"id":"f521427a-e115-4664-ad12-f8ae37f5b001","name":"BERLIN, KAROWER DAMM 35.","brand":"Shell","street":"KAROWER DAMM 35","place":"BERLIN","lat":52.596697,"lng":13.466498,"dist":9.6,"diesel":1.129,"e5":1.319,"e10":1.279,"isOpen":true,"houseNumber":"","postCode":13129},{"id":"51d4b4ad-a095-1aa0-e100-80009459e03a","name":"JET BERLIN MAERKISCHE ALLEE 246","brand":"JET","street":"MAERKISCHE ALLEE 246","place":"BERLIN","lat":52.5517,"lng":13.5497,"dist":9.7,"diesel":1.079,"e5":1.269,"e10":1.249,"isOpen":true,"houseNumber":"","postCode":12679},{"id":"3df48270-cb19-43ef-8954-fdb96ceb2536","name":"Sprint Berlin Rudower Str.","brand":"Sprint","street":"Rudower Str.","place":"Berlin","lat":52.433201,"lng":13.4722,"dist":9.7,"diesel":1.159,"e5":1.329,"e10":1.309,"isOpen":true,"houseNumber":"150","postCode":12351},{"id":"005056ba-7cb6-1ed5-acf9-0fb3bfc501a5","name":"Star Tankstelle","brand":"STAR","street":"Altentreptower Stra\u00dfe","place":"Berlin","lat":52.51333,"lng":13.563785,"dist":9.8,"diesel":1.079,"e5":1.269,"e10":1.249,"isOpen":true,"houseNumber":"2","postCode":12683},{"id":"d3b61144-df3a-44fd-8e66-2ce0ebd4e796","name":"Aral Tankstelle","brand":"ARAL","street":"Schlossstra\u00dfe","place":"Berlin","lat":52.45308,"lng":13.3150759,"dist":9.8,"diesel":1.159,"e5":1.339,"e10":1.319,"isOpen":true,"houseNumber":"63-64","postCode":12165},{"id":"2621d571-e8f3-40c6-881f-b9fd3415ed9e","name":"TOTAL BERLIN","brand":"TOTAL","street":"EICHBORNDAMM","place":"BERLIN","lat":52.576416,"lng":13.314502,"dist":9.9,"diesel":1.109,"e5":1.309,"e10":1.289,"isOpen":true,"houseNumber":"91","postCode":13403},{"id":"2de1cdfb-7cd5-4c00-846b-1f3d3a668f06","name":"BERLIN - DANNENWALDER WEG 69","brand":"Agip","street":"Dannenwalder Weg","place":"Berlin","lat":52.591690698103,"lng":13.346440968099,"dist":9.9,"diesel":1.099,"e5":1.279,"e10":1.259,"isOpen":true,"houseNumber":"69","postCode":13439},{"id":"ce241717-2a15-1ed7-b6f3-400377904e8b","name":"JET BERLIN HAUPTSTR. 70 A - 71","brand":"JET","street":"HAUPTSTR. 70 A - 71","place":"BERLIN","lat":52.60363617,"lng":13.43213004,"dist":9.9,"diesel":1.119,"e5":1.319,"e10":1.299,"isOpen":true,"houseNumber":"","postCode":13127},{"id":"54407762-2af9-4bd5-9179-f74dcb994f45","name":"Aral Tankstelle","brand":"ARAL","street":"M\u00e4rkische Allee","place":"Berlin","lat":52.5537338,"lng":13.5515871,"dist":9.9,"diesel":1.109,"e5":1.289,"e10":1.269,"isOpen":true,"houseNumber":"248","postCode":12679},{"id":"51d4b5f0-a095-1aa0-e100-80009459e03a","name":"JET BERLIN KOEPENICKER STRASSE 108","brand":"JET","street":"KOEPENICKER STRASSE 108","place":"BERLIN","lat":52.49626,"lng":13.56313,"dist":9.9,"diesel":1.079,"e5":1.269,"e10":1.249,"isOpen":true,"houseNumber":"","postCode":12683},{"id":"70c81159-72e1-4063-a485-fc4d95dca0ca","name":"BERLIN, SPANDAUER DAMM","brand":"Shell","street":"SPANDAUER DAMM 151","place":"BERLIN","lat":52.519184,"lng":13.272248,"dist":10,"diesel":1.119,"e5":1.279,"e10":1.249,"isOpen":true,"houseNumber":"","postCode":14050},{"id":"ab41fb7c-7490-4ca3-b321-90ec68e7966e","name":"GO Berlin Mariendorfer Damm","brand":"GO","street":"Mariendorfer Damm","place":"Berlin","lat":52.425999,"lng":13.3944,"dist":10,"diesel":1.149,"e5":1.329,"e10":1.309,"isOpen":true,"houseNumber":"306","postCode":12107},{"id":"1c002618-6ca6-4faf-9752-688a83b5e818","name":"BERLIN, JOHANNISTHALER CHAUSSEE","brand":"Shell","street":"JOHANNISTHALER CHAUSSEE 411","place":"BERLIN","lat":52.42493,"lng":13.442476,"dist":10.1,"diesel":1.159,"e5":1.339,"e10":1.299,"isOpen":true,"houseNumber":"","postCode":12351},{"id":"414b6e59-7913-4d20-b7fe-f77d917e0c77","name":"BERLIN, ORANIENBURGER STR.","brand":"Shell","street":"ORANIENBURGER STR. 61","place":"BERLIN","lat":52.589884,"lng":13.334643,"dist":10.1,"diesel":1.099,"e5":1.279,"e10":1.249,"isOpen":true,"houseNumber":"","postCode":13437},{"id":"51d4b57e-a095-1aa0-e100-80009459e03a","name":"JET BERLIN ELISABETHSTR. 111","brand":"JET","street":"ELISABETHSTR. 111","place":"BERLIN","lat":52.5346,"lng":13.5661,"dist":10.2,"diesel":1.079,"e5":1.269,"e10":1.249,"isOpen":true,"houseNumber":"","postCode":12683},{"id":"40066e8e-fd1c-4ccc-8c47-bee5d1bed07e","name":"BERLIN, BUCKOWER DAMM","brand":"Shell","street":"BUCKOWER DAMM 225","place":"BERLIN","lat":52.423594,"lng":13.437216,"dist":10.2,"diesel":1.159,"e5":1.339,"e10":1.299,"isOpen":true,"houseNumber":"","postCode":12349},{"id":"350787b5-2802-4fd1-979b-192e0e413772","name":"Aral Tankstelle","brand":"ARAL","street":"Mariendorfer Damm","place":"Berlin","lat":52.4230461,"lng":13.3967419,"dist":10.3,"diesel":1.159,"e5":1.339,"e10":1.319,"isOpen":true,"houseNumber":"341","postCode":12107},{"id":"43d61d80-bf9f-4dd6-80e5-4cc58702c9fc","name":"Esso Tankstelle","brand":"ESSO","street":"WILHELMSRUHER DAMM 160","place":"BERLIN","lat":52.59653,"lng":13.346873,"dist":10.3,"diesel":1.099,"e5":1.279,"e10":1.259,"isOpen":true,"houseNumber":"","postCode":13435},{"id":"e1a15081-24ca-9107-e040-0b0a3dfe563c","name":"Berlin, Wittestr. 16","brand":"HEM","street":"Wittestr.","place":"Berlin","lat":52.577587,"lng":13.306636,"dist":10.3,"diesel":1.089,"e5":1.269,"e10":1.249,"isOpen":true,"houseNumber":"16","postCode":13509},{"id":"c55ab696-94d3-4dee-b728-afde19032c78","name":"Aral Tankstelle","brand":"ARAL","street":"Reichsstra\u00dfe","place":"Berlin","lat":52.5136452,"lng":13.266036,"dist":10.4,"diesel":1.119,"e5":1.299,"e10":1.279,"isOpen":true,"houseNumber":"13\/14","postCode":14052},{"id":"005056ba-7cb6-1ed2-bceb-6e844f9e6d20","name":"star Tankstelle","brand":"STAR","street":"K\u00f6nigin-Luise-Stra\u00dfe","place":"Berlin","lat":52.45773,"lng":13.29803,"dist":10.4,"diesel":1.149,"e5":1.329,"e10":1.309,"isOpen":true,"houseNumber":"22a","postCode":14195},{"id":"2c21b856-4850-0952-e100-00000630df04","name":"BERLIN-BEL\u00dfSTRA\u00dfE","brand":"Agip","street":"Bel\u00dfstr.","place":"Berlin","lat":52.427305,"lng":13.365091,"dist":10.4,"diesel":1.129,"e5":1.299,"e10":1.279,"isOpen":true,"houseNumber":"51","postCode":12249},{"id":"415db6d8-0a8e-4c1a-8dd7-326903e0a0c9","name":"Aral Tankstelle","brand":"ARAL","street":"Neuk\u00f6llner Stra\u00dfe","place":"Berlin","lat":52.42863,"lng":13.4798374,"dist":10.4,"diesel":1.159,"e5":1.339,"e10":1.319,"isOpen":true,"houseNumber":"219","postCode":12357},{"id":"4cda8f83-88e0-47c0-9a38-616f0504d76c","name":"Aral Tankstelle","brand":"ARAL","street":"Hohenzollerndamm","place":"Berlin","lat":52.4758873,"lng":13.2791624,"dist":10.4,"diesel":1.169,"e5":1.309,"e10":1.289,"isOpen":true,"houseNumber":"97","postCode":14199},{"id":"5c5a87c7-bc04-41b4-8b81-733a9ab2db96","name":"Esso Tankstelle","brand":"ESSO","street":"FRITZ-ERLER-ALLEE 154","place":"BERLIN","lat":52.425434,"lng":13.474281,"dist":10.6,"diesel":1.139,"e5":1.319,"e10":1.299,"isOpen":true,"houseNumber":"","postCode":12353},{"id":"005056ba-7cb6-1ee5-9b87-ce914e3550e4","name":"star Tankstelle","brand":"STAR","street":"Adlergestell","place":"Berlin","lat":52.44546,"lng":13.527143,"dist":10.6,"diesel":1.079,"e5":1.269,"e10":1.249,"isOpen":true,"houseNumber":"121","postCode":12439},{"id":"59d037f4-80f7-4ff1-8a77-6c690585f659","name":"Access BERLIN","brand":"Access","street":"REICHSSTR","place":"BERLIN","lat":52.514988,"lng":13.262317,"dist":10.6,"diesel":1.099,"e5":1.269,"e10":1.249,"isOpen":true,"houseNumber":"86","postCode":14052},{"id":"799ebee7-838a-4f8d-8f9b-2f8b0255107d","name":"TOTAL BERLIN","brand":"TOTAL","street":"LANDSBERGER ALLEE","place":"BERLIN","lat":52.54486,"lng":13.569022,"dist":10.7,"diesel":1.109,"e5":1.309,"e10":1.289,"isOpen":true,"houseNumber":"526","postCode":12681},{"id":"86c5d496-140d-4920-a085-721f4b9697fb","name":"Esso Tankstelle","brand":"ESSO","street":"KAISER-WILHELM-STR. 34","place":"BERLIN","lat":52.432253,"lng":13.33814,"dist":10.7,"diesel":1.149,"e5":1.329,"e10":1.309,"isOpen":true,"houseNumber":"","postCode":12247},{"id":"fce1aaf2-c981-4710-9243-1939b61a3bb3","name":"Aral Tankstelle","brand":"ARAL","street":"Neukoellner Str.","place":"Berlin","lat":52.42579,"lng":13.4823542,"dist":10.8,"diesel":1.179,"e5":1.359,"e10":1.339,"isOpen":true,"houseNumber":"250-256","postCode":12357},{"id":"8a7a3916-0deb-46ba-bef9-4531c0cb1c7c","name":"TOTAL BERLIN","brand":"TOTAL","street":"HEERSTR.","place":"BERLIN","lat":52.508358,"lng":13.260575,"dist":10.8,"diesel":1.129,"e5":1.309,"e10":1.289,"isOpen":true,"houseNumber":"35-37","postCode":14055},{"id":"52293830-5847-06d0-e100-80009459e02c","name":"JET BERLIN HOLZHAUSER STRASSE 34","brand":"JET","street":"HOLZHAUSER STRASSE 34","place":"BERLIN","lat":52.578741,"lng":13.299446,"dist":10.8,"diesel":1.089,"e5":1.269,"e10":1.249,"isOpen":true,"houseNumber":"","postCode":13509},{"id":"335670ce-e425-44f1-b9d5-17e0c1404b12","name":"Esso Tankstelle","brand":"ESSO","street":"CHEMNITZER STR. 179\/181","place":"BERLIN","lat":52.49016087,"lng":13.5756174,"dist":10.9,"diesel":1.099,"e5":1.279,"e10":1.259,"isOpen":true,"houseNumber":"","postCode":12621},{"id":"e1a15081-2596-9107-e040-0b0a3dfe563c","name":"Berlin, Sch\u00f6nerlinder Str. 60-61","brand":"HEM","street":"Sch\u00f6nerlinder Str.","place":"Berlin","lat":52.613243,"lng":13.433304,"dist":11,"diesel":1.119,"e5":1.319,"e10":1.299,"isOpen":true,"houseNumber":"60-61","postCode":13127},{"id":"b836a639-67ae-4265-80e1-07fe48775ed1","name":"BERLIN - GUELZOWER STR. 15A","brand":"Agip","street":"Guelzower Str.","place":"Berlin","lat":52.514442026429,"lng":13.581900719961,"dist":11,"diesel":1.089,"e5":1.279,"e10":1.259,"isOpen":true,"houseNumber":"15A","postCode":12619},{"id":"10ba80a5-b028-497c-b94e-8e247e487a12","name":"Sun Wittenau","brand":"SUN","street":"Oranienburger Strasse","place":"Berlin","lat":52.598719,"lng":13.331994,"dist":11,"diesel":1.089,"e5":1.269,"e10":1.249,"isOpen":true,"houseNumber":"181","postCode":13437},{"id":"22d54b03-09d7-4d21-baaf-8b9492f985cf","name":"Aral Tankstelle","brand":"ARAL","street":"Landsberger Allee","place":"Berlin","lat":52.54654,"lng":13.57439,"dist":11.1,"diesel":1.109,"e5":1.289,"e10":1.269,"isOpen":true,"houseNumber":"534","postCode":12681},{"id":"98bdb5f5-dff3-4451-a49d-ff444d4678bf","name":"ELAN BERLIN","brand":"ELAN","street":"ADLERGESTELL","place":"BERLIN","lat":52.441456,"lng":13.533086,"dist":11.2,"diesel":1.079,"e5":1.269,"e10":1.249,"isOpen":true,"houseNumber":"179","postCode":12489},{"id":"38313b7f-d78d-4d61-9c57-dfd5765f7952","name":"Esso Tankstelle","brand":"ESSO","street":"MARIENFELDER CHAUSSEE 171","place":"BERLIN","lat":52.414372,"lng":13.402286,"dist":11.2,"diesel":1.159,"e5":1.339,"e10":1.319,"isOpen":true,"houseNumber":"","postCode":12349},{"id":"8484cd59-8550-4970-a71f-a695f7971095","name":"TOTAL BERLIN","brand":"TOTAL","street":"NEUKOELLNER STR.","place":"BERLIN","lat":52.4222,"lng":13.487083,"dist":11.3,"diesel":1.139,"e5":1.319,"e10":1.299,"isOpen":true,"houseNumber":"294","postCode":12357},{"id":"e1a15081-25a2-9107-e040-0b0a3dfe563c","name":"Berlin, Kaulsdorfer Str. 124-126","brand":"HEM","street":"Kaulsdorfer Str.","place":"Berlin","lat":52.471977,"lng":13.57143,"dist":11.3,"diesel":1.079,"e5":1.259,"e10":1.239,"isOpen":true,"houseNumber":"124-126","postCode":12555},{"id":"da124130-09ff-42fe-b2c9-1146fe002149","name":"Aral Tankstelle","brand":"ARAL","street":"An der Wuhlheide","place":"Berlin","lat":52.45521,"lng":13.5557737,"dist":11.4,"diesel":1.119,"e5":1.299,"e10":1.279,"isOpen":true,"houseNumber":"240-242","postCode":12459},{"id":"ce8685d4-7249-477e-8bb3-04eb69e6bb44","name":"Aral Tankstelle","brand":"ARAL","street":"Berliner Stra\u00dfe","place":"Berlin","lat":52.5813866,"lng":13.2913771,"dist":11.4,"diesel":1.139,"e5":1.309,"e10":1.289,"isOpen":true,"houseNumber":"67","postCode":13507},{"id":"cfee80b5-e9b2-4813-af32-12421dfd29cd","name":"Berlin, Alt-Kaulsdorf 45\/49","brand":"SB","street":"Alt-Kaulsdorf 45\/49","place":"Berlin","lat":52.505445,"lng":13.587939,"dist":11.5,"diesel":1.079,"e5":1.269,"e10":1.239,"isOpen":true,"houseNumber":"","postCode":12621},{"id":"4db605a7-860f-4760-b3ac-1532fef7a901","name":"Esso Tankstelle","brand":"ESSO","street":"CLAYALLEE 90","place":"BERLIN","lat":52.460752,"lng":13.275345,"dist":11.5,"diesel":1.159,"e5":1.339,"e10":1.319,"isOpen":true,"houseNumber":"","postCode":14195},{"id":"40a5a76a-b60f-49eb-8930-38308772afec","name":"BERLIN, KOENIGSBERGER STR.","brand":"Shell","street":"KOENIGSBERGER STR. 8","place":"BERLIN","lat":52.429599,"lng":13.322023,"dist":11.5,"diesel":1.169,"e5":1.339,"e10":1.299,"isOpen":true,"houseNumber":"","postCode":12207},{"id":"1b25d42b-65e8-4724-a801-6a921b273aa7","name":"Aral Tankstelle","brand":"ARAL","street":"Drakestra\u00dfe","place":"Berlin","lat":52.4408722,"lng":13.2994127,"dist":11.6,"diesel":1.159,"e5":1.339,"e10":1.319,"isOpen":true,"houseNumber":"26a","postCode":12205},{"id":"af73e67f-0010-4a8e-93c0-29254f70c1ed","name":"AHRENSFELDE, BERNAUER STR.","brand":"Shell","street":"BERNAUER STR. \/ B 2","place":"Ahrensfelde \/ OT Lindenberg","lat":52.601437,"lng":13.514766,"dist":11.6,"diesel":1.129,"e5":1.319,"e10":1.279,"isOpen":true,"houseNumber":"","postCode":16356},{"id":"01abf2e9-84e2-4328-936f-9958c7c733a8","name":"Esso Tankstelle","brand":"ESSO","street":"UNTER DEN EICHEN 67-69","place":"BERLIN","lat":52.445174,"lng":13.291825,"dist":11.6,"diesel":1.159,"e5":1.339,"e10":1.319,"isOpen":true,"houseNumber":"","postCode":12203},{"id":"51d4b4d4-a095-1aa0-e100-80009459e03a","name":"JET BERLIN BUCKOWER CHAUSSEE 36-42","brand":"JET","street":"BUCKOWER CHAUSSEE 36-42","place":"BERLIN","lat":52.4122,"lng":13.3879,"dist":11.6,"diesel":1.149,"e5":1.329,"e10":1.309,"isOpen":true,"houseNumber":"","postCode":12277},{"id":"cd74cb4d-9127-4d6a-8b86-7dbdb44281fd","name":"BERLIN-MARZAHN","brand":"Agip","street":"Ahrensfelder Chaussee","place":"Berlin-Marzahn","lat":52.572287871058,"lng":13.564906878666,"dist":11.7,"diesel":1.089,"e5":1.279,"e10":1.259,"isOpen":true,"houseNumber":"152","postCode":12689},{"id":"7c6a13f6-12a8-4619-a7ab-2c3c9dbab28b","name":"Aral Tankstelle","brand":"ARAL","street":"Berliner Stra\u00dfe","place":"Berlin","lat":52.5843735,"lng":13.2877436,"dist":11.8,"diesel":1.139,"e5":1.309,"e10":1.289,"isOpen":true,"houseNumber":"24","postCode":13507},{"id":"9a0eb832-f276-47cb-92ed-5aa588da780e","name":"Sprint Berlin Barnackufer","brand":"Sprint","street":"Barnackufer","place":"Berlin","lat":52.43,"lng":13.3122,"dist":11.9,"diesel":1.149,"e5":1.329,"e10":1.309,"isOpen":true,"houseNumber":"25","postCode":12207},{"id":"005056ba-7cb6-1ed2-bceb-6e381992cd20","name":"star Tankstelle","brand":"STAR","street":"K\u00f6nigsberger Stra\u00dfe","place":"Berlin","lat":52.43098,"lng":13.31013,"dist":11.9,"diesel":1.149,"e5":1.329,"e10":1.309,"isOpen":true,"houseNumber":"25a","postCode":12207},{"id":"32059cff-d7cc-4375-8c54-2f2ffcb3ebfa","name":"Sprint Berlin Nonnendammallee","brand":"Sprint","street":"Nonnendammallee","place":"Berlin","lat":52.537498,"lng":13.2475,"dist":11.9,"diesel":1.089,"e5":1.279,"e10":1.259,"isOpen":true,"houseNumber":"42","postCode":13599},{"id":"ac011d66-ff3d-4b76-b079-b6622d8e6aa5","name":"BERLIN, LINDENSTR. 21","brand":"Shell","street":"LINDENSTR. 21","place":"BERLIN","lat":52.455202,"lng":13.567291,"dist":12,"diesel":1.089,"e5":1.279,"e10":1.249,"isOpen":true,"houseNumber":"","postCode":12555},{"id":"005056ba-7cb6-1ed2-bceb-aba199748d43","name":"star Tankstelle","brand":"STAR","street":"Hildburghauser Stra\u00dfe","place":"Berlin","lat":52.41277,"lng":13.35945,"dist":12,"diesel":1.149,"e5":1.329,"e10":1.309,"isOpen":true,"houseNumber":"7","postCode":12279},{"id":"e1a15081-24cb-9107-e040-0b0a3dfe563c","name":"Berlin, Zabel-Kr\u00fcger-Damm 20","brand":"HEM","street":"Zabel-Kr\u00fcger-Damm","place":"Berlin","lat":52.608665,"lng":13.327813,"dist":12.1,"diesel":1.089,"e5":1.269,"e10":1.249,"isOpen":true,"houseNumber":"20","postCode":13469},{"id":"53ace41c-0bc3-4e44-8c8e-f3e8f0b0f073","name":"Sprint Berlin Hildburghauser Str.","brand":"Sprint","street":"Hildburghauser Str.","place":"Berlin","lat":52.412998,"lng":13.3542,"dist":12.1,"diesel":1.149,"e5":1.329,"e10":1.309,"isOpen":true,"houseNumber":"27 a","postCode":12279},{"id":"76c149d3-c19c-411d-9929-999ca73edece","name":"TOTAL BERLIN","brand":"TOTAL","street":"OBERSPREESTR.","place":"BERLIN","lat":52.4458,"lng":13.56179,"dist":12.3,"diesel":1.089,"e5":1.279,"e10":1.259,"isOpen":true,"houseNumber":"138","postCode":12555},{"id":"2dfc81ca-f872-4527-be2e-fc127cbbd123","name":"Aral Tankstelle","brand":"ARAL","street":"Gartenfelder Stra\u00dfe","place":"Berlin","lat":52.5435677,"lng":13.2432652,"dist":12.3,"diesel":1.109,"e5":1.299,"e10":1.279,"isOpen":true,"houseNumber":"71","postCode":13599},{"id":"c7842e47-2456-49de-a7b0-7937bca83344","name":"Berlin Nonnendammallee","brand":"Mr. Wash Autoservice AG","street":"Nonnendammallee","place":"Berlin","lat":52.53833,"lng":13.24112,"dist":12.3,"diesel":1.079,"e5":1.269,"e10":1.239,"isOpen":true,"houseNumber":"27","postCode":13599},{"id":"005056ba-7cb6-1ed5-a7ce-94793a301eaf","name":"Star Tankstelle","brand":"STAR","street":"Waidmannsluster Damm","place":"Berlin","lat":52.598175,"lng":13.298843,"dist":12.3,"diesel":1.089,"e5":1.269,"e10":1.249,"isOpen":true,"houseNumber":"54","postCode":13509},{"id":"e1a15081-24c9-9107-e040-0b0a3dfe563c","name":"Berlin, Lichterfelder Ring 96","brand":"HEM","street":"Lichterfelder Ring","place":"Berlin","lat":52.412346,"lng":13.347266,"dist":12.4,"diesel":1.149,"e5":1.329,"e10":1.309,"isOpen":true,"houseNumber":"96","postCode":12279},{"id":"51d4b5dc-a095-1aa0-e100-80009459e03a","name":"JET BERLIN CHARLOTTENBURGER CH. 47","brand":"JET","street":"CHARLOTTENBURGER CH. 47","place":"BERLIN","lat":52.5272,"lng":13.2343,"dist":12.6,"diesel":1.089,"e5":1.269,"e10":1.249,"isOpen":true,"houseNumber":"","postCode":13597},{"id":"32067176-94df-4b22-b314-d8696b41a809","name":"BERLIN - ADLERGESTELL 289 A","brand":"Agip","street":"Adlergestell","place":"Berlin","lat":52.431973788044,"lng":13.546518992104,"dist":12.6,"diesel":1.089,"e5":1.279,"e10":1.259,"isOpen":true,"houseNumber":"289 A","postCode":12489},{"id":"43b2c5ef-a0ad-4604-85d9-13c1b0b326c7","name":"TOTAL BERLIN","brand":"TOTAL","street":"HILDBURGHAUSER STR.","place":"BERLIN","lat":52.419155,"lng":13.319371,"dist":12.6,"diesel":1.159,"e5":1.339,"e10":1.319,"isOpen":true,"houseNumber":"222","postCode":12209},{"id":"005056ba-7cb6-1ed2-bceb-9d9e89b4cd3c","name":"star Tankstelle","brand":"STAR","street":"Oraniendamm","place":"Berlin","lat":52.61124,"lng":13.31823,"dist":12.7,"diesel":1.129,"e5":1.269,"e10":1.249,"isOpen":true,"houseNumber":"28","postCode":13469},{"id":"f1ceff8c-1b5a-4768-acf5-d7b843715929","name":"Aral Tankstelle","brand":"ARAL","street":"Spenglerstr.","place":"Ahrensfelde","lat":52.60811,"lng":13.52888,"dist":12.7,"diesel":1.169,"e5":1.349,"e10":1.329,"isOpen":true,"houseNumber":"2","postCode":16356},{"id":"bbbd8a3d-5e93-4ba3-6592-489aa2e6aa14","name":"CleanCar AG","brand":"CleanCar AG","street":"Charlottenburger Chaussee","place":"Berlin","lat":52.52715,"lng":13.23211,"dist":12.7,"diesel":1.099,"e5":1.269,"e10":1.249,"isOpen":true,"houseNumber":"53A","postCode":13597},{"id":"005056ba-7cb6-1ed2-bceb-6d1d63fd4d20","name":"star Tankstelle","brand":"STAR","street":"Finckensteinallee","place":"Berlin","lat":52.43271,"lng":13.28685,"dist":12.8,"diesel":1.149,"e5":1.329,"e10":1.309,"isOpen":true,"houseNumber":"133","postCode":12205},{"id":"a60371c7-0cd1-4ca0-83f7-c63835ef3a8c","name":"Kaufland Tankstelle Eiche","brand":"Kaufland","street":"Landsberger Chaussee","place":"Ahrensfelde","lat":52.547984,"lng":13.600753,"dist":12.8,"diesel":1.079,"e5":1.259,"e10":1.239,"isOpen":true,"houseNumber":"17","postCode":16356},{"id":"62b8ad20-9057-4611-a09a-86031339915c","name":"K\u00f6penick","brand":"SPREVES","street":"Friedrichshagener Str.","place":"Berlin","lat":52.45229,"lng":13.57845,"dist":12.8,"diesel":1.079,"e5":1.259,"e10":1.239,"isOpen":true,"houseNumber":"4","postCode":12555},{"id":"e1a15081-24cc-9107-e040-0b0a3dfe563c","name":"Berlin, Adlergestell 305","brand":"HEM","street":"Adlergestell","place":"Berlin","lat":52.43057,"lng":13.549101,"dist":12.8,"diesel":1.079,"e5":1.269,"e10":1.249,"isOpen":true,"houseNumber":"305","postCode":12489},{"id":"ec18e7d5-8776-49a3-a445-8eac7d2a7f66","name":"BERLIN, HULTSCHINER DAMM.","brand":"Shell","street":"HULTSCHINER DAMM 129\/131","place":"BERLIN","lat":52.486536,"lng":13.604069,"dist":12.9,"diesel":1.089,"e5":1.279,"e10":1.249,"isOpen":true,"houseNumber":"","postCode":12623},{"id":"49a9d3c7-88e5-4f73-814c-dcfb3c7ec35a","name":"BERLIN, STENDALER STR","brand":"Shell","street":"STENDALER STR. 176","place":"BERLIN","lat":52.5454,"lng":13.603985,"dist":12.9,"diesel":1.099,"e5":1.279,"e10":1.249,"isOpen":true,"houseNumber":"","postCode":12627},{"id":"3615a7ea-35d6-4d4f-a790-b8c4a1027b8e","name":"CleanCar AG","brand":"CleanCar AG","street":"Glienicker Weg","place":"Berlin","lat":52.431049,"lng":13.552671,"dist":13,"diesel":1.089,"e5":1.269,"e10":1.249,"isOpen":true,"houseNumber":"","postCode":12489},{"id":"51d4b590-a095-1aa0-e100-80009459e03a","name":"JET BERLIN GLIENICKER WEG 105","brand":"JET","street":"GLIENICKER WEG 105","place":"BERLIN","lat":52.434996,"lng":13.559225,"dist":13,"diesel":1.079,"e5":1.269,"e10":1.249,"isOpen":true,"houseNumber":"","postCode":12489},{"id":"50d2feb7-90d7-4f2f-b74d-d46d7baccb44","name":"Aral Tankstelle","brand":"ARAL","street":"Heerstra\u00dfe","place":"Berlin","lat":52.50708,"lng":13.2277813,"dist":13,"diesel":1.129,"e5":1.309,"e10":1.289,"isOpen":true,"houseNumber":"136","postCode":14055},{"id":"005056ba-7cb6-1ed5-afd3-7ff1263fc642","name":"Star Tankstelle","brand":"STAR","street":"Alt-Mahlsdorf","place":"Berlin","lat":52.504627,"lng":13.611068,"dist":13,"diesel":1.079,"e5":1.269,"e10":1.249,"isOpen":true,"houseNumber":"117","postCode":12623},{"id":"0ed76157-da31-43fc-bf59-fddc04cd4a86","name":"GO Eiche Landsberger Chaussee","brand":"GO","street":"Landsberger Chaussee","place":"Eiche","lat":52.5467,"lng":13.6046,"dist":13,"diesel":1.089,"e5":1.269,"e10":1.249,"isOpen":true,"houseNumber":"21","postCode":16356},{"id":"e1a15081-255b-9107-e040-0b0a3dfe563c","name":"Berlin, Berliner Str. 140","brand":"HEM","street":"Berliner Str.","place":"Berlin","lat":52.613346,"lng":13.315172,"dist":13,"diesel":1.089,"e5":1.269,"e10":1.249,"isOpen":true,"houseNumber":"140","postCode":13467},{"id":"a68f5a66-9816-4716-ae24-91a541c18188","name":"TOTAL AHRENSFELDE","brand":"TOTAL","street":"Dorfstr.","place":"AHRENSFELDE","lat":52.577507,"lng":13.584722,"dist":13.2,"diesel":1.089,"e5":1.279,"e10":1.259,"isOpen":true,"houseNumber":"37 a","postCode":16356},{"id":"e1a15081-255a-9107-e040-0b0a3dfe563c","name":"Berlin, Alt-Mahlsdorf 40","brand":"HEM","street":"Alt-Mahlsdorf","place":"Berlin","lat":52.505146,"lng":13.616803,"dist":13.4,"diesel":1.079,"e5":1.269,"e10":1.249,"isOpen":true,"houseNumber":"40","postCode":12623},{"id":"3bddb178-2d83-40a3-8027-8f651e90c0e3","name":"GO Berlin Barnetstr.","brand":"GO","street":"Barnetstr.","place":"Berlin","lat":52.394001,"lng":13.4008,"dist":13.5,"diesel":1.149,"e5":1.329,"e10":1.309,"isOpen":true,"houseNumber":"66-67","postCode":12305},{"id":"51d4b6ff-a095-1aa0-e100-80009459e03a","name":"JET BERLIN BELLEVUESTR. 14","brand":"JET","street":"BELLEVUESTR. 14","place":"BERLIN","lat":52.45395,"lng":13.59256,"dist":13.5,"diesel":1.089,"e5":1.269,"e10":1.249,"isOpen":true,"houseNumber":"","postCode":12555},{"id":"a9e8fcc3-ba9d-4981-a7df-2b11f091fad8","name":"Esso Tankstelle","brand":"ESSO","street":"BERLINER STR. 20-22","place":"BERLIN","lat":52.435687,"lng":13.266519,"dist":13.6,"diesel":1.159,"e5":1.339,"e10":1.319,"isOpen":true,"houseNumber":"","postCode":14169},{"id":"23652c17-e7ef-432a-9e76-4316ccbde976","name":"BERLIN, AM JULIUSTURM","brand":"Shell","street":"AM JULIUSTURM 33","place":"BERLIN","lat":52.536639,"lng":13.221841,"dist":13.6,"diesel":1.099,"e5":1.279,"e10":1.249,"isOpen":true,"houseNumber":"","postCode":13599},{"id":"2ad322ee-548f-4606-8c45-8665e898fd39","name":"TOTAL BERLIN","brand":"TOTAL","street":"BERLINER STR","place":"BERLIN","lat":52.436134,"lng":13.265841,"dist":13.6,"diesel":1.169,"e5":1.339,"e10":1.319,"isOpen":true,"houseNumber":"15A","postCode":14169},{"id":"70b97795-49e1-4713-aa94-7fa0bd93070c","name":"BERLIN-HELLERSDORF - ALT MAHLSDORF","brand":"Agip","street":"Alt Mahlsdorf","place":"Berlin-Hellersdorf","lat":52.504147905822,"lng":13.619813276838,"dist":13.6,"diesel":1.089,"e5":1.279,"e10":1.259,"isOpen":true,"houseNumber":"94","postCode":12623},{"id":"06b35678-0789-43b9-996f-2d3210d04d64","name":"Aral Tankstelle","brand":"ARAL","street":"McDonalds-Stra\u00dfe","place":"Blumberg","lat":52.5824242,"lng":13.587225,"dist":13.6,"diesel":1.129,"e5":1.349,"e10":1.329,"isOpen":true,"houseNumber":"1","postCode":16356},{"id":"735a2db4-8f05-4118-819a-d6689a23db0c","name":"BERLIN - OSTPREUSSENDAMM 89","brand":"Agip","street":"Ostpreussendamm","place":"Berlin","lat":52.41503210613,"lng":13.30259408705,"dist":13.6,"diesel":1.159,"e5":1.339,"e10":1.319,"isOpen":true,"houseNumber":"89","postCode":12207},{"id":"bef65b2c-2a7b-4c54-aa4d-c874fc49f3b9","name":"AHRENSFELDE - BLUMBERGER CHAUSSEE","brand":"Agip","street":"Blumberger Chaussee","place":"Ahrensfelde","lat":52.584158057649,"lng":13.588933445249,"dist":13.8,"diesel":1.089,"e5":1.279,"e10":1.259,"isOpen":true,"houseNumber":"","postCode":16356},{"id":"45936520-e830-4578-a3cb-188053b90765","name":"BERLIN, HERMSDORFER DAMM 141-143","brand":"Shell","street":"HERMSDORFER DAMM 141-143","place":"BERLIN","lat":52.616078,"lng":13.300634,"dist":13.8,"diesel":1.099,"e5":1.279,"e10":1.249,"isOpen":true,"houseNumber":"","postCode":13467},{"id":"005056ba-7cb6-1ed5-a685-79a3266e48f2","name":"Star Tankstelle","brand":"STAR","street":"Adlergestell","place":"Berlin","lat":52.423702,"lng":13.55947,"dist":13.9,"diesel":1.079,"e5":1.269,"e10":1.249,"isOpen":true,"houseNumber":"391","postCode":12527},{"id":"852f0efc-cf31-4151-939b-6553f66302b5","name":"TOTAL BERLIN","brand":"TOTAL","street":"ALT MAHLSDORF","place":"BERLIN","lat":52.504208,"lng":13.624332,"dist":13.9,"diesel":1.109,"e5":1.309,"e10":1.289,"isOpen":true,"houseNumber":"60","postCode":12623},{"id":"e1a15081-24cd-9107-e040-0b0a3dfe563c","name":"Berlin, Riesaer Str. 121","brand":"HEM","street":"Riesaer Str.","place":"Berlin","lat":52.53023,"lng":13.62457,"dist":14,"diesel":1.089,"e5":1.269,"e10":1.249,"isOpen":true,"houseNumber":"121","postCode":12627},{"id":"0ab14657-b01e-4827-a5d4-311ad444b887","name":"Hermsdorfer Damm","brand":"SPREVES","street":"Hermsdorfer Damm","place":"Berlin","lat":52.619373,"lng":13.304075,"dist":14,"diesel":1.089,"e5":1.269,"e10":1.249,"isOpen":true,"houseNumber":"180","postCode":13467},{"id":"a2f96cc4-b858-463d-bd93-b3056e81fcaa","name":"Esso Tankstelle","brand":"ESSO","street":"HERMSDORFER DAMM 221","place":"BERLIN","lat":52.622566,"lng":13.312269,"dist":14,"diesel":1.099,"e5":1.279,"e10":1.259,"isOpen":true,"houseNumber":"","postCode":13467},{"id":"be9e82a0-b2f1-45c0-80b9-699bde1b4d30","name":"Esso Tankstelle","brand":"ESSO","street":"LICHTENRADER DAMM 274","place":"BERLIN","lat":52.387691,"lng":13.40843,"dist":14.2,"diesel":1.159,"e5":1.329,"e10":1.309,"isOpen":true,"houseNumber":"","postCode":12305},{"id":"163f01c1-13be-42c2-b9ac-2c2764ea9779","name":"Esso Tankstelle","brand":"ESSO","street":"RUHLEBENER STR. 185","place":"BERLIN","lat":52.527434,"lng":13.210224,"dist":14.2,"diesel":1.099,"e5":1.279,"e10":1.259,"isOpen":true,"houseNumber":"","postCode":13597},{"id":"ba57bcbc-7b94-4d3a-896f-21ff77773667","name":"BERLIN, BAHNHOFSTRA\u00dfE 1.","brand":"Shell","street":"BAHNHOFSTR. 1","place":"BERLIN","lat":52.386922,"lng":13.407901,"dist":14.2,"diesel":1.159,"e5":1.339,"e10":1.299,"isOpen":true,"houseNumber":"","postCode":12305},{"id":"97e211c4-3abb-4879-9b3a-74324e6b3b19","name":"Aral Tankstelle","brand":"ARAL","street":"Argentinische Allee","place":"Berlin","lat":52.4445457,"lng":13.242588,"dist":14.3,"diesel":1.169,"e5":1.339,"e10":1.319,"isOpen":true,"houseNumber":"49","postCode":14163},{"id":"b184962c-35dd-4a14-8574-9cf1be8108f5","name":"Markenfreie TS BERLIN","brand":"Markenfreie TS","street":"ARGENTINISCHE ALLEE","place":"BERLIN","lat":52.444042,"lng":13.241882,"dist":14.4,"diesel":1.149,"e5":1.329,"e10":1.309,"isOpen":true,"houseNumber":"47","postCode":14163},{"id":"f70435b5-76bd-480c-bade-34cede6dbc88","name":"HOENOW, MAHLSDORFER STR.","brand":"Shell","street":"MAHLSDORFER STR 18","place":"HOENOW","lat":52.532861,"lng":13.63007,"dist":14.4,"diesel":1.129,"e5":1.309,"e10":1.269,"isOpen":true,"houseNumber":"","postCode":15366},{"id":"e1a15081-25cb-9107-e040-0b0a3dfe563c","name":"Sch\u00f6nefeld, Waltersdorfer Chaussee 24","brand":"HEM","street":"Waltersdorfer Chaussee","place":"Sch\u00f6nefeld","lat":52.39962,"lng":13.516635,"dist":14.4,"diesel":1.119,"e5":1.309,"e10":1.289,"isOpen":true,"houseNumber":"24","postCode":12529},{"id":"e1a15081-2534-9107-e040-0b0a3dfe563c","name":"Panketal, Dorfstr. 1a","brand":"HEM","street":"Dorfstr.","place":"Panketal","lat":52.620937,"lng":13.542302,"dist":14.4,"diesel":1.129,"e5":1.309,"e10":1.289,"isOpen":true,"houseNumber":"1a","postCode":16341},{"id":"905d4775-754e-4b38-baca-89c98fad1d1a","name":"Sprint Berlin Ruhlebener Str.","brand":"Sprint","street":"Ruhlebener Str.","place":"Berlin","lat":52.529099,"lng":13.2074,"dist":14.4,"diesel":1.099,"e5":1.269,"e10":1.249,"isOpen":true,"houseNumber":"1 A","postCode":13597},{"id":"963f55d8-2dd4-41ae-bace-28b3fa2baf06","name":"BERLIN - POTSDAMER STRASSE 31-32","brand":"Agip","street":"Potsdamer Strasse","place":"Berlin","lat":52.434330815386,"lng":13.249117473617,"dist":14.6,"diesel":1.159,"e5":1.339,"e10":1.319,"isOpen":true,"houseNumber":"31-32","postCode":14163},{"id":"56c90729-da4a-407e-a969-140c53615e9e","name":"Access BERLIN","brand":"Access","street":"GOETELSTRASSE","place":"BERLIN","lat":52.521435,"lng":13.203645,"dist":14.6,"diesel":1.089,"e5":1.269,"e10":1.249,"isOpen":true,"houseNumber":"132-140","postCode":13595},{"id":"e4b2aa05-221a-4e5a-ba75-5f6673b75741","name":"BERLIN, WENDENSCHLOSSSTR.","brand":"Shell","street":"WENDENSCHLOSSSTR. 292","place":"BERLIN","lat":52.429248,"lng":13.584005,"dist":14.7,"diesel":1.089,"e5":1.279,"e10":1.249,"isOpen":true,"houseNumber":"","postCode":12557},{"id":"792992bc-59d7-4b3e-9cbb-db69af60717f","name":"Greenline Dahlwitz-Hoppegarten","brand":"Greenline","street":"Gewerbestr.","place":"Dahlwitz-Hoppegarten","lat":52.5103,"lng":13.6375,"dist":14.8,"diesel":1.098,"e5":null,"e10":null,"isOpen":true,"houseNumber":"","postCode":15366},{"id":"621a64ef-5e01-4743-b378-9ed6e88a9323","name":"TOTAL GROSSBEEREN \/ OT HEINERSDORF","brand":"TOTAL","street":"FRIEDERIKENHOFER STR.","place":"GROSSBEEREN \/ OT HEINERSDORF","lat":52.39034,"lng":13.340665,"dist":14.8,"diesel":1.159,"e5":1.339,"e10":1.319,"isOpen":true,"houseNumber":"1","postCode":14979},{"id":"005056ba-7cb6-1ed2-bceb-6d53a37c0d20","name":"star Tankstelle","brand":"STAR","street":"Teltower Damm","place":"Berlin","lat":52.41936,"lng":13.26472,"dist":14.9,"diesel":1.149,"e5":1.329,"e10":1.309,"isOpen":true,"houseNumber":"164","postCode":14167},{"id":"eec777c6-0c58-4e20-a37e-e4eb1a342982","name":"ELAN BERLIN","brand":"ELAN","street":"FUERSTENWALDER DAMM","place":"BERLIN","lat":52.45479,"lng":13.616859,"dist":14.9,"diesel":1.089,"e5":1.269,"e10":1.249,"isOpen":true,"houseNumber":"418","postCode":12587},{"id":"718913e3-0f0d-4073-9b78-5696c9207068","name":"TOTAL BERLIN","brand":"TOTAL","street":"HABICHTSTR.","place":"BERLIN","lat":52.585857,"lng":13.231868,"dist":14.9,"diesel":1.109,"e5":1.309,"e10":1.289,"isOpen":true,"houseNumber":"11-13","postCode":13505},{"id":"c44e7d57-3475-423c-acab-a35bc177d587","name":"ELAN BERLIN","brand":"ELAN","street":"TELTOWER DAMM","place":"BERLIN","lat":52.418083,"lng":13.265725,"dist":15,"diesel":1.149,"e5":1.329,"e10":1.309,"isOpen":true,"houseNumber":"173","postCode":14167},{"id":"d590310c-e209-46b2-bfe7-dacc6148e1f1","name":"TOTAL BERLIN","brand":"TOTAL","street":"STREITSTRASSE","place":"BERLIN","lat":52.55424,"lng":13.207408,"dist":15,"diesel":1.099,"e5":1.279,"e10":1.259,"isOpen":true,"houseNumber":"84","postCode":13587},{"id":"e299aecc-2b21-4891-9f18-0056139bcb81","name":"Sprint Berlin Potsdamer Str.","brand":"Sprint","street":"Potsdamer Str.","place":"Berlin","lat":52.433399,"lng":13.2425,"dist":15,"diesel":1.149,"e5":1.329,"e10":1.309,"isOpen":true,"houseNumber":"11","postCode":14163},{"id":"5d8c8a4c-bce7-4d28-ae12-0d61a971c5cc","name":"BERLIN, STREITSTR.","brand":"Shell","street":"STREITSTR. 19","place":"BERLIN","lat":52.558899,"lng":13.208409,"dist":15.1,"diesel":1.099,"e5":1.289,"e10":1.249,"isOpen":true,"houseNumber":"","postCode":13587},{"id":"2373bbdb-0dcb-402f-ba7b-f08b1705e103","name":"Aral Tankstelle","brand":"ARAL","street":"F\u00fcrstenwalder Damm","place":"Berlin","lat":52.456295,"lng":13.6211214,"dist":15.1,"diesel":1.109,"e5":1.289,"e10":1.269,"isOpen":true,"houseNumber":"445-44","postCode":12587},{"id":"7347dd32-bfa1-470a-a6ee-2a2c95ad9af5","name":"Aral Tankstelle","brand":"ARAL","street":"Falkenseer Damm","place":"Berlin","lat":52.5427475,"lng":13.1993036,"dist":15.2,"diesel":1.129,"e5":1.309,"e10":1.289,"isOpen":true,"houseNumber":"16","postCode":13585},{"id":"057827cd-6583-4a3a-a461-f8546073fd02","name":"Sun Klosterstr.","brand":"SUN","street":"Klosterstr.","place":"Berlin","lat":52.52943,"lng":13.19517,"dist":15.3,"diesel":1.089,"e5":1.269,"e10":1.239,"isOpen":true,"houseNumber":"20","postCode":13581},{"id":"403be9a4-04fb-4bd0-9b52-ca1cfb8490c5","name":"TOTAL BERLIN","brand":"TOTAL","street":"ADLERGESTELL","place":"BERLIN","lat":52.414345,"lng":13.572972,"dist":15.3,"diesel":1.089,"e5":1.279,"e10":1.259,"isOpen":true,"houseNumber":"543","postCode":12527},{"id":"0b42f2f7-3110-4878-a1fe-daf51041a464","name":"Aral Tankstelle","brand":"ARAL","street":"Potsdamer Chaussee","place":"Berlin","lat":52.43311,"lng":13.2380924,"dist":15.3,"diesel":1.159,"e5":1.339,"e10":1.319,"isOpen":true,"houseNumber":"6","postCode":14163},{"id":"644d157d-1678-4320-88bb-e8464abf28d4","name":"Esso Tankstelle","brand":"ESSO","street":"WASSMANNSDORFER CHAUSSEE 6","place":"SCHOENEFELD","lat":52.387086,"lng":13.50451,"dist":15.3,"diesel":1.139,"e5":1.319,"e10":1.299,"isOpen":true,"houseNumber":"","postCode":12529},{"id":"005056ba-7cb6-1ed2-bceb-6ed90c618d20","name":"star Tankstelle","brand":"STAR","street":"Heiligenseestra\u00dfe","place":"Berlin","lat":52.6016,"lng":13.24308,"dist":15.3,"diesel":1.089,"e5":1.269,"e10":1.249,"isOpen":true,"houseNumber":"28","postCode":13503},{"id":"51df69e1-03e1-0f50-e100-80009459e038","name":"JET SCHOENEFELD WASSMANNSDORFER CHAUSSEE 20","brand":"JET","street":"WASSMANNSDORFER CHAUSSEE 20","place":"SCHOENEFELD","lat":52.385717,"lng":13.501521,"dist":15.4,"diesel":1.129,"e5":1.309,"e10":1.289,"isOpen":true,"houseNumber":"","postCode":12529},{"id":"c1a1a169-d0b9-4e6a-a9a0-a44c4065e8f7","name":"Aral Tankstelle","brand":"ARAL","street":"Sch\u00fctzenstra\u00dfe","place":"Sch\u00f6nefeld","lat":52.3950233,"lng":13.5340309,"dist":15.4,"diesel":1.149,"e5":1.329,"e10":1.309,"isOpen":true,"houseNumber":"11","postCode":12529},{"id":"8cb9d3bb-31aa-4939-9484-a7ded6e472f5","name":"TOTAL BERLIN","brand":"TOTAL","street":"ZEPERNICKER STR.","place":"BERLIN","lat":52.640984,"lng":13.514269,"dist":15.4,"diesel":1.129,"e5":1.329,"e10":1.309,"isOpen":true,"houseNumber":"9-10","postCode":13125},{"id":"aaedd081-4bcc-441f-8023-c42263f82e82","name":"Aral Tankstelle","brand":"ARAL","street":"Oranienburger Chaussee","place":"Glienicke","lat":52.6362839,"lng":13.3068943,"dist":15.5,"diesel":1.129,"e5":1.319,"e10":1.299,"isOpen":true,"houseNumber":"34","postCode":16548},{"id":"9f07b69b-4b15-4852-9c60-5d293c6cadc5","name":"Sprint Berlin Seegefelder Str.","brand":"Sprint","street":"Seegefelder Str.","place":"Berlin","lat":52.535999,"lng":13.1913,"dist":15.6,"diesel":1.099,"e5":1.269,"e10":1.249,"isOpen":true,"houseNumber":"41","postCode":13583},{"id":"54666a4e-a914-4f79-8ca8-2a9893267d7e","name":"Aral Tankstelle","brand":"ARAL","street":"Altlandsberger Chaussee","place":"Hoppegarten","lat":52.5440521,"lng":13.64699,"dist":15.7,"diesel":1.139,"e5":1.329,"e10":1.309,"isOpen":true,"houseNumber":"27","postCode":15366},{"id":"005056ba-7cb6-1ed2-bceb-58c81e68cd18","name":"star Tankstelle","brand":"STAR","street":"Sch\u00f6nerlinder Chaussee","place":"Wandlitz","lat":52.65613,"lng":13.44596,"dist":15.8,"diesel":1.119,"e5":1.319,"e10":1.299,"isOpen":true,"houseNumber":"38 a","postCode":16348},{"id":"005056ba-7cb6-1ed2-bceb-99e3f54b4d3b","name":"star Tankstelle","brand":"STAR","street":"Lindenthaler Allee","place":"Berlin","lat":52.43132,"lng":13.23007,"dist":15.8,"diesel":1.149,"e5":1.329,"e10":1.309,"isOpen":true,"houseNumber":"42","postCode":14163},{"id":"5ffe1e13-ef40-4695-aeb2-4612d58fac17","name":"Esso Tankstelle","brand":"ESSO","street":"HEERSTR. 285","place":"BERLIN","lat":52.514924,"lng":13.185008,"dist":15.9,"diesel":1.149,"e5":1.329,"e10":1.309,"isOpen":false,"houseNumber":"","postCode":13595},{"id":"51d4b471-a095-1aa0-e100-80009459e03a","name":"JET BERLIN BRUNSBUETTELER DAMM 87-89","brand":"JET","street":"BRUNSBUETTELER DAMM 87-89","place":"BERLIN","lat":52.5338,"lng":13.1848,"dist":16,"diesel":1.089,"e5":1.269,"e10":1.249,"isOpen":true,"houseNumber":"","postCode":13581},{"id":"005056ba-7cb6-1ed2-bceb-641db1c24d1d","name":"star Tankstelle","brand":"STAR","street":"Brunsb\u00fctteler Damm","place":"Berlin","lat":52.53425,"lng":13.1846,"dist":16,"diesel":1.099,"e5":1.269,"e10":1.249,"isOpen":true,"houseNumber":"82-102","postCode":13581},{"id":"54386887-7afe-4a13-bca4-51e97b1cfd09","name":"TELTOW - MAHLOWER STR. 241","brand":"Agip","street":"Mahlower Str.","place":"Teltow","lat":52.386958254422,"lng":13.304939048339,"dist":16.2,"diesel":1.159,"e5":1.339,"e10":1.319,"isOpen":true,"houseNumber":"241","postCode":14513},{"id":"4d69f7de-27be-4c31-b677-acd7c884aa00","name":"TOTAL BERLIN","brand":"TOTAL","street":"HEERSTR.","place":"BERLIN","lat":52.51681,"lng":13.1800585,"dist":16.2,"diesel":1.179,"e5":1.359,"e10":1.339,"isOpen":true,"houseNumber":"324","postCode":13593},{"id":"005056ba-7cb6-1ee5-a980-090160c05099","name":"star Tankstelle","brand":"STAR","street":"Gatower Stra\u00dfe","place":"Berlin","lat":52.504707,"lng":13.180452,"dist":16.2,"diesel":1.089,"e5":1.269,"e10":1.249,"isOpen":true,"houseNumber":"173","postCode":13595},{"id":"51d4b6f7-a095-1aa0-e100-80009459e03a","name":"JET TELTOW MAHLOWER STR. 144","brand":"JET","street":"MAHLOWER STR. 144","place":"TELTOW","lat":52.39569,"lng":13.2813,"dist":16.2,"diesel":1.149,"e5":1.329,"e10":1.309,"isOpen":true,"houseNumber":"","postCode":14513},{"id":"1482765d-a744-4ca6-9f0c-eea8c8f9efa5","name":"Auto SPREVES Berlin Zeppelinstr.","brand":"Auto SPREVES","street":"Zeppelinstr.","place":"Berlin","lat":52.540001,"lng":13.1829,"dist":16.2,"diesel":1.099,"e5":1.269,"e10":1.249,"isOpen":true,"houseNumber":"51 a","postCode":13583},{"id":"defadb89-ee11-459a-9ce5-416df31ee2e8","name":"BERLIN, HEERSTR.","brand":"Shell","street":"HEERSTR. 326-328","place":"BERLIN","lat":52.517045,"lng":13.179017,"dist":16.3,"diesel":1.179,"e5":1.359,"e10":1.319,"isOpen":true,"houseNumber":"","postCode":13593},{"id":"c62e9ad4-918d-43b6-95f4-c276d2a77cab","name":"BERLIN, POTSDAMER CHAUSSEE","brand":"Shell","street":"POTSDAMER CHAUSSEE 24","place":"BERLIN","lat":52.429717,"lng":13.22338,"dist":16.3,"diesel":1.159,"e5":1.339,"e10":1.299,"isOpen":true,"houseNumber":"","postCode":14129},{"id":"8b9d38b9-86bb-4099-9236-d4370e2ecd97","name":"Aral Tankstelle","brand":"ARAL","street":"Heerstra\u00dfe","place":"Berlin","lat":52.5166626,"lng":13.1778078,"dist":16.4,"diesel":1.179,"e5":1.359,"e10":1.339,"isOpen":true,"houseNumber":"325","postCode":13593},{"id":"d04bd06a-2dab-4d8c-92b1-4043174f60c7","name":"BERLIN - HEERSTRASSE 343-345","brand":"Agip","street":"Heerstrasse","place":"Berlin","lat":52.517020626311,"lng":13.176638320697,"dist":16.4,"diesel":1.179,"e5":1.359,"e10":1.339,"isOpen":true,"houseNumber":"343-345","postCode":13593},{"id":"79a7e854-833d-4b0d-89b9-db0053369ff9","name":"SCHOENEFELD, WASSMANNSDORFER ALLEE","brand":"Shell","street":"WASSMANNSDORFER ALLEE 1","place":"SCHOENEFELD","lat":52.368028,"lng":13.467417,"dist":16.6,"diesel":1.149,"e5":1.319,"e10":1.279,"isOpen":true,"houseNumber":"","postCode":12529},{"id":"cebbe420-bcf3-4db8-9099-c52b783e2158","name":"Esso Tankstelle","brand":"ESSO","street":"FALKENSEER CHAUSSEE 50","place":"BERLIN","lat":52.549044,"lng":13.17897,"dist":16.7,"diesel":1.109,"e5":1.279,"e10":1.259,"isOpen":true,"houseNumber":"","postCode":13583},{"id":"c7425d95-6a65-4db3-a9fc-c02c2b09c169","name":"Aral Tankstelle","brand":"ARAL","street":"Osdorfer Ring","place":"Gro\u00dfbeeren","lat":52.3785057,"lng":13.3129215,"dist":16.8,"diesel":1.159,"e5":1.339,"e10":1.319,"isOpen":true,"houseNumber":"33-35","postCode":14979},{"id":"29462a90-0092-437c-a287-ea4aa611c1c3","name":"BERLIN, RUPPINER CHAUSSEE","brand":"Shell","street":"RUPPINER CHAUSSEE 339","place":"BERLIN","lat":52.620716,"lng":13.235848,"dist":17.1,"diesel":1.139,"e5":1.289,"e10":1.249,"isOpen":true,"houseNumber":"","postCode":13503},{"id":"be8369d6-7599-4b1e-86f7-3bc05d16c3fd","name":"ELAN KLEINMACHNOW","brand":"ELAN","street":"KARL-MARX-STR.","place":"KLEINMACHNOW","lat":52.41485,"lng":13.2235,"dist":17.3,"diesel":1.149,"e5":1.329,"e10":1.309,"isOpen":true,"houseNumber":"46","postCode":14532},{"id":"449bbf03-633d-4447-a97d-85176003f4d0","name":"Aral Tankstelle","brand":"ARAL","street":"Liebenwalder Stra\u00dfe","place":"M\u00fchlenbeck","lat":52.6692963,"lng":13.3775377,"dist":17.4,"diesel":1.149,"e5":1.329,"e10":1.309,"isOpen":true,"houseNumber":"10a","postCode":16567},{"id":"6e89cba4-91d0-4019-b6fe-fe3558af7025","name":"Aral Tankstelle","brand":"ARAL","street":"Am L\u00fcckefeld","place":"Mahlow","lat":52.3581734,"lng":13.4323883,"dist":17.4,"diesel":1.169,"e5":1.329,"e10":1.309,"isOpen":true,"houseNumber":"2","postCode":15831},{"id":"be5c6214-ea9b-4fde-8355-42b80dbcb9df","name":"TOTAL BERLIN-SCHOENEFELD","brand":"TOTAL","street":"ELLY-BEINHORN-RING","place":"BERLIN-SCHOENEFELD","lat":52.370373,"lng":13.527195,"dist":17.6,"diesel":1.129,"e5":1.319,"e10":1.299,"isOpen":true,"houseNumber":"2A","postCode":12529},{"id":"aa1c6fb6-439a-4915-8ad8-0f67697a65e2","name":"Esso Tankstelle","brand":"ESSO","street":"WARTHESTR. 1","place":"TELTOW","lat":52.397259,"lng":13.242516,"dist":17.7,"diesel":1.159,"e5":1.339,"e10":1.319,"isOpen":true,"houseNumber":"","postCode":14513},{"id":"d00749f1-129b-4cdd-9bdb-776de6de9ac4","name":"BAT GRUNEWALD - A115","brand":"Agip","street":"Grunewald \/ BAB A115","place":"Berlin","lat":52.43451,"lng":13.19163,"dist":17.8,"diesel":1.269,"e5":1.439,"e10":1.419,"isOpen":true,"houseNumber":"","postCode":14129},{"id":"32e98bcd-567e-4b4a-86c4-0ac4674c6c5c","name":"Esso Tankstelle","brand":"ESSO","street":"BAB  A 113 \/  WESTSEITE","place":"WALTERSDORF","lat":52.378422,"lng":13.561522,"dist":18,"diesel":1.129,"e5":1.319,"e10":1.299,"isOpen":true,"houseNumber":"","postCode":15732},{"id":"51d4b47c-a095-1aa0-e100-80009459e03a","name":"JET TELTOW SAGANER STR. - RHEINSTR. 2","brand":"JET","street":"SAGANER STR. - RHEINSTR. 2","place":"TELTOW","lat":52.39687,"lng":13.2374,"dist":18,"diesel":1.149,"e5":1.329,"e10":1.309,"isOpen":true,"houseNumber":"","postCode":14513},{"id":"d988bbb8-b94b-4c94-b2c5-95910f19dd22","name":"team Tankstelle Neuenhagen","brand":"team","street":"Rudolf-Breitscheid-Allee","place":"Neuenhagen","lat":52.527,"lng":13.6856,"dist":18.1,"diesel":1.129,"e5":1.329,"e10":1.309,"isOpen":true,"houseNumber":"27-29","postCode":15366},{"id":"886f637a-74e2-478d-9810-5a04fab74e92","name":"Esso Tankstelle","brand":"ESSO","street":"BAB A 113  \/  OSTSEITE","place":"WALTERSDORF","lat":52.377499,"lng":13.562697,"dist":18.1,"diesel":1.129,"e5":1.319,"e10":1.299,"isOpen":true,"houseNumber":"","postCode":15732},{"id":"005056ba-7cb6-1ed2-bceb-662ba1a94d1f","name":"star Tankstelle","brand":"STAR","street":"BAB 10 \/ Seeberg Ost","place":"Altlandsberg","lat":52.55016,"lng":13.68212,"dist":18.2,"diesel":1.259,"e5":1.439,"e10":1.419,"isOpen":true,"houseNumber":"","postCode":15345},{"id":"cc66653e-483c-46c0-a666-793478d9439f","name":"BE Hohen Neuendorf","brand":"Beyer Tankstelle","street":"Gewerbestra\u00dfe","place":"Hohen Neuendorf","lat":52.66081,"lng":13.29429,"dist":18.3,"diesel":1.085,"e5":null,"e10":null,"isOpen":true,"houseNumber":"21","postCode":16540},{"id":"482ed2fa-8f25-48d7-8319-62d78bb80dad","name":"HOHEN-NEUENDORF - BAT A111 STOLPER","brand":"Agip","street":"Bat A 111 Stolper Heide","place":"Hohen-Neuendorf","lat":52.6404877,"lng":13.2439444,"dist":18.3,"diesel":1.129,"e5":1.309,"e10":1.289,"isOpen":true,"houseNumber":"","postCode":16540},{"id":"39ef08b9-3105-4122-beec-1c7809f3f404","name":"HOHEN NEUENDORF, BERLINER  STR.","brand":"Shell","street":"BERLINER STR. 96 B","place":"HOHEN NEUENDORF","lat":52.66032,"lng":13.286922,"dist":18.5,"diesel":1.109,"e5":1.289,"e10":1.249,"isOpen":true,"houseNumber":"","postCode":16540},{"id":"979077ab-76ed-4dd6-834a-bbd2e70dadbf","name":"TOTAL ALTLANDSBERG","brand":"TOTAL","street":"BAB SEEBERG WEST A10","place":"ALTLANDSBERG","lat":52.543564,"lng":13.6893015,"dist":18.5,"diesel":1.269,"e5":1.429,"e10":1.409,"isOpen":true,"houseNumber":"","postCode":15345},{"id":"60cccbb7-1a0b-47b2-a37b-eee4492be33a","name":"HENNIGSDORF, SPANDAUER ALLEE","brand":"Shell","street":"SPANDAUER ALLEE 7","place":"Hennigsdorf","lat":52.621604,"lng":13.204108,"dist":18.8,"diesel":1.109,"e5":1.309,"e10":1.269,"isOpen":true,"houseNumber":"","postCode":16761},{"id":"34b4ac1b-77af-481c-88b5-237921f4eb7c","name":"Aral Tankstelle","brand":"ARAL","street":"Zeppelinstra\u00dfe","place":"Sch\u00f6nefeld","lat":52.3678131,"lng":13.5607662,"dist":18.9,"diesel":1.119,"e5":1.319,"e10":1.299,"isOpen":true,"houseNumber":"2","postCode":12529},{"id":"40aa766d-6e93-4f55-b34e-444638389df1","name":"Sprint Mahlow-Glasow Alt-Glasow","brand":"Sprint","street":"Alt-Glasow","place":"Mahlow-Glasow","lat":52.3428,"lng":13.4349,"dist":19.2,"diesel":1.149,"e5":1.309,"e10":1.289,"isOpen":true,"houseNumber":"12","postCode":15831},{"id":"528da962-bd28-4f5d-8bd0-cc01ba9b538c","name":"STAHNSDORF, BAEKEDAMM","brand":"Shell","street":"BAEKEDAMM 9","place":"STAHNSDORF","lat":52.393289,"lng":13.218789,"dist":19.2,"diesel":1.159,"e5":1.339,"e10":1.299,"isOpen":true,"houseNumber":"","postCode":14532},{"id":"e1a15081-2586-9107-e040-0b0a3dfe563c","name":"Hohen Neuendorf, Kurt-Tucholsky-Str. 33e","brand":"HEM","street":"Kurt-Tucholsky-Str.","place":"Hohen Neuendorf","lat":52.662834,"lng":13.27113,"dist":19.3,"diesel":1.099,"e5":1.279,"e10":1.259,"isOpen":true,"houseNumber":"33e","postCode":16540},{"id":"be82caa8-a72e-4834-a5e7-e947488e9522","name":"Berlin, Kladower Damm 332","brand":"bft","street":"Kladower Damm 332","place":"Berlin","lat":52.45763,"lng":13.14909,"dist":19.4,"diesel":1.099,"e5":1.269,"e10":1.239,"isOpen":true,"houseNumber":"","postCode":14089},{"id":"cd8ba6a6-98cd-1ed7-9c96-62f66643d7be","name":"JET KLEINMACHNOW STOLPER WEG 57","brand":"JET","street":"STOLPER WEG 57","place":"KLEINMACHNOW","lat":52.40376304,"lng":13.18561031,"dist":20.1,"diesel":1.149,"e5":1.329,"e10":1.309,"isOpen":true,"houseNumber":"","postCode":14532},{"id":"44f549e9-3bc7-4289-8e1e-c47df3e93cca","name":"TOTAL BERLIN","brand":"TOTAL","street":"ADLERGESTELL","place":"BERLIN","lat":52.38777,"lng":13.630653,"dist":20.1,"diesel":1.089,"e5":1.279,"e10":1.259,"isOpen":true,"houseNumber":"623","postCode":12527},{"id":"88488ccf-a408-4350-b526-777808c7a371","name":"TOTAL BERNAU","brand":"TOTAL","street":"SCHWANEBECKER CH.","place":"BERNAU","lat":52.66806,"lng":13.582339,"dist":20.3,"diesel":1.139,"e5":1.319,"e10":1.299,"isOpen":true,"houseNumber":"29","postCode":16321},{"id":"55f7e0ef-1934-4423-906b-cff5da46f392","name":"OIL! tank","brand":"OIL!","street":"Zepernicker Chaussee 39","place":"Bernau","lat":52.6735,"lng":13.5689,"dist":20.3,"diesel":1.119,"e5":1.299,"e10":1.279,"isOpen":true,"houseNumber":"","postCode":16321},{"id":"10c1dac6-ede3-46ba-a6fc-928349dc52bc","name":"Sprint Berlin-Mueggelheim Gosener Damm","brand":"Sprint","street":"Gosener Damm","place":"Berlin-Mueggelheim","lat":52.410198,"lng":13.6666,"dist":20.4,"diesel":1.099,"e5":1.299,"e10":1.279,"isOpen":true,"houseNumber":"13-15","postCode":12559},{"id":"b5048bf8-232d-47aa-8d05-968dc463e95d","name":"TOTAL ALTLANDSBERG","brand":"TOTAL","street":"HOENOWER CHAUSSEE","place":"ALTLANDSBERG","lat":52.556614,"lng":13.71417,"dist":20.5,"diesel":1.109,"e5":1.309,"e10":1.289,"isOpen":true,"houseNumber":"","postCode":15345},{"id":"005056ba-7cb6-1ed2-bceb-8dae91c48d33","name":"star Tankstelle","brand":"STAR","street":"Schwanebecker Chaussee","place":"Bernau","lat":52.66981,"lng":13.58307,"dist":20.5,"diesel":1.129,"e5":1.309,"e10":1.289,"isOpen":true,"houseNumber":"9a","postCode":16321},{"id":"d235d2f6-b2df-4a6d-a6d4-b6255c82a841","name":"TOTAL BLANKENFELDE","brand":"TOTAL","street":"ZOSSENER DAMM","place":"BLANKENFELDE","lat":52.330124,"lng":13.404113,"dist":20.6,"diesel":1.169,"e5":1.319,"e10":1.299,"isOpen":true,"houseNumber":"19","postCode":15827},{"id":"f0976214-5807-4a45-8e11-6f936a7e97ad","name":"Aral Tankstelle","brand":"ARAL","street":"K\u00f6nigstra\u00dfe","place":"Berlin","lat":52.41921,"lng":13.1585417,"dist":20.6,"diesel":1.159,"e5":1.339,"e10":1.319,"isOpen":true,"houseNumber":"58","postCode":14109},{"id":"c1bf4b72-fa05-42b1-b983-c16aa7108d6a","name":"Esso Tankstelle","brand":"ESSO","street":"FUERSTENWALDER ALLEE 100","place":"BERLIN","lat":52.436652,"lng":13.695944,"dist":20.6,"diesel":1.109,"e5":1.289,"e10":1.269,"isOpen":true,"houseNumber":"","postCode":12589},{"id":"ad86b874-c4ff-4a3f-9eb5-cdb49e1663b0","name":"Esso Tankstelle","brand":"ESSO","street":"PRENZLAUER STR","place":"WANDLITZ","lat":52.70465,"lng":13.440017,"dist":21.2,"diesel":1.129,"e5":1.329,"e10":1.309,"isOpen":true,"houseNumber":"","postCode":16348},{"id":"005056ba-7cb6-1ed5-b2d9-a12c739e91a9","name":"Star Tankstelle","brand":"STAR","street":"Frankfurter Chaussee","place":"Vogelsdorf","lat":52.500977,"lng":13.732211,"dist":21.2,"diesel":1.079,"e5":1.269,"e10":1.249,"isOpen":true,"houseNumber":"85","postCode":15370},{"id":"e87ddb36-fa61-47d2-8632-89de220de30f","name":"TOTAL HENNIGSDORF","brand":"TOTAL","street":"VELTENER STR.","place":"HENNIGSDORF","lat":52.6539,"lng":13.204295,"dist":21.2,"diesel":1.149,"e5":1.309,"e10":1.289,"isOpen":true,"houseNumber":"22","postCode":16761},{"id":"8f7f88ee-3c84-410a-867a-a02d67b26914","name":"FALKENSEE, SPANDAUER STR.","brand":"Shell","street":"SPANDAUER STR. 22","place":"FALKENSEE","lat":52.564436,"lng":13.113961,"dist":21.4,"diesel":1.179,"e5":1.309,"e10":1.269,"isOpen":true,"houseNumber":"","postCode":14612},{"id":"57f8f3a5-eea9-4368-b480-2298582a8437","name":"Aral Tankstelle","brand":"ARAL","street":"Adlergestell","place":"Berlin","lat":52.37881,"lng":13.6441908,"dist":21.5,"diesel":1.119,"e5":1.319,"e10":1.299,"isOpen":true,"houseNumber":"748","postCode":12527},{"id":"eabc50cf-4979-4281-be7e-ae6f2151f1b2","name":"FREDERSDORF-VOGELSDORF, FRANKFURTER CHAUSSEE","brand":"Shell","street":"FRANKFURTER CHAUSSEE 37","place":"FREDERSDORF-VOGELSDORF","lat":52.500094,"lng":13.735878,"dist":21.5,"diesel":1.089,"e5":1.279,"e10":1.249,"isOpen":true,"houseNumber":"","postCode":15370},{"id":"0173fd22-174a-41f2-9e0d-004b7da5b74f","name":"Aral Tankstelle","brand":"ARAL","street":"Werner-von-Siemens-Stra\u00dfe","place":"Bernau","lat":52.6861229,"lng":13.5701942,"dist":21.6,"diesel":1.159,"e5":1.359,"e10":1.339,"isOpen":true,"houseNumber":"","postCode":16321},{"id":"307b219f-bee1-4e66-97e6-d7a5cb2ff0bd","name":"Aral Tankstelle","brand":"ARAL","street":"Frankfurter Chaussee","place":"Vogelsdorf","lat":52.4995575,"lng":13.7438011,"dist":22,"diesel":1.129,"e5":1.329,"e10":1.309,"isOpen":true,"houseNumber":"68\/","postCode":15370},{"id":"e1a15081-2531-9107-e040-0b0a3dfe563c","name":"Sch\u00f6neiche, Kalkberger Str. 189","brand":"TAMOIL","street":"Kalkberger Str.","place":"Sch\u00f6neiche","lat":52.47261,"lng":13.737931,"dist":22.1,"diesel":1.089,"e5":1.279,"e10":1.259,"isOpen":true,"houseNumber":"189","postCode":15566},{"id":"14406026-b7d9-4a88-8836-1707f320cf76","name":"FREDERSDORF-VOGELSDORF, SCHOENEICHER ALLEE","brand":"Shell","street":"SCHOENEICHER ALLEE 1-2","place":"FREDERSDORF-VOGELSDORF","lat":52.514083,"lng":13.745577,"dist":22.1,"diesel":1.129,"e5":1.329,"e10":1.289,"isOpen":true,"houseNumber":"","postCode":15370},{"id":"0cf1db14-30b0-4108-99e2-e3e2d500ab7f","name":"team Tankstelle Fredersdorf","brand":"team","street":"Fredersdorfer Chaussee","place":"Fredersdorf","lat":52.5452,"lng":13.7445,"dist":22.2,"diesel":1.109,"e5":1.309,"e10":1.289,"isOpen":true,"houseNumber":"67","postCode":15370},{"id":"9f942e93-c1e2-420e-9a74-07a8d38c15bc","name":"Esso Tankstelle","brand":"ESSO","street":"RUEDNITZER CHAUSSEE 2","place":"BERNAU","lat":52.683494,"lng":13.597822,"dist":22.3,"diesel":1.139,"e5":1.319,"e10":1.299,"isOpen":true,"houseNumber":"","postCode":16321},{"id":"f5edfabe-c739-45eb-bab2-3d1ec69ad499","name":"Aral Tankstelle","brand":"ARAL","street":"BAB A","place":"Brusendorf","lat":52.3184547,"lng":13.4983187,"dist":22.5,"diesel":1.129,"e5":1.329,"e10":1.309,"isOpen":true,"houseNumber":"10Nordseite","postCode":15749},{"id":"51d4b710-a095-1aa0-e100-80009459e03a","name":"JET BIRKENWERDER HAUPTSTRASSE 137-141","brand":"JET","street":"HAUPTSTRASSE 137-141","place":"BIRKENWERDER","lat":52.6981,"lng":13.2754,"dist":22.6,"diesel":1.129,"e5":1.309,"e10":1.289,"isOpen":true,"houseNumber":"","postCode":16547},{"id":"75d77754-8e67-4dd5-7baa-bd11ddae8f5f","name":"Wasch- & Tankcenter Weise","brand":"Freie Tankstelle","street":"Am Pankeborn","place":"Bernau","lat":52.685937,"lng":13.599978,"dist":22.6,"diesel":1.129,"e5":1.309,"e10":1.289,"isOpen":true,"houseNumber":"3","postCode":16321},{"id":"e1a15081-2532-9107-e040-0b0a3dfe563c","name":"Sch\u00f6nwalde, Falkenseer Str. 162","brand":"HEM","street":"Falkenseer Str.","place":"Sch\u00f6nwalde","lat":52.607197,"lng":13.120824,"dist":22.7,"diesel":1.149,"e5":1.299,"e10":1.279,"isOpen":true,"houseNumber":"162","postCode":14621},{"id":"4f25255e-9624-42e0-a190-3c680abd4108","name":"Aral Tankstelle","brand":"ARAL","street":"BAB A","place":"Brusendorf","lat":52.3156242,"lng":13.4937134,"dist":22.7,"diesel":1.129,"e5":1.329,"e10":1.309,"isOpen":true,"houseNumber":"10Suedseite","postCode":15749},{"id":"05122edf-dc87-4f5c-adc7-1b74dcb2fba1","name":"Kaufland Tankstelle Dallgow-D\u00f6beritz","brand":"Kaufland","street":"D\u00f6beritzer Weg","place":"Dallgow-D\u00f6beritz","lat":52.52975,"lng":13.08288,"dist":22.8,"diesel":1.069,"e5":1.259,"e10":1.229,"isOpen":true,"houseNumber":"3","postCode":14624},{"id":"b42e69b8-ce53-4baf-8b58-a2ebe047e3e4","name":"TOTAL BIRKENWERDER","brand":"TOTAL","street":"HAUPTSTR.","place":"BIRKENWERDER","lat":52.7036,"lng":13.271795,"dist":23.2,"diesel":1.139,"e5":1.319,"e10":1.299,"isOpen":true,"houseNumber":"200","postCode":16547},{"id":"005056ba-7cb6-1ed2-bceb-6801c0fc0d1f","name":"star Tankstelle","brand":"STAR","street":"Berliner Stra\u00dfe","place":"Velten","lat":52.67642,"lng":13.18995,"dist":23.7,"diesel":1.129,"e5":1.299,"e10":1.279,"isOpen":true,"houseNumber":"6","postCode":16727},{"id":"51d4b5c3-a095-1aa0-e100-80009459e03a","name":"JET POTSDAM GROSSBEERENSTR. 344","brand":"JET","street":"GROSSBEERENSTR. 344","place":"POTSDAM","lat":52.3805,"lng":13.1449,"dist":23.9,"diesel":1.149,"e5":1.329,"e10":1.309,"isOpen":true,"houseNumber":"","postCode":14480},{"id":"91be6f2d-203c-4b29-a475-93f2f33c4300","name":"Aral Tankstelle","brand":"ARAL","street":"FINKENKRUGER STRA\u00dfE","place":"FALKENSEE","lat":52.5627,"lng":13.0744238,"dist":23.9,"diesel":1.129,"e5":1.329,"e10":1.309,"isOpen":true,"houseNumber":"57","postCode":14612},{"id":"c50f1af1-ee52-451a-ae6d-4dec35ee1fe6","name":"GENSHAGEN, PARKALLEE","brand":"Shell","street":"PARKALLEE 1 BRANDENBG. PARK","place":"GENSHAGEN","lat":52.309058,"lng":13.31376,"dist":24,"diesel":1.169,"e5":1.349,"e10":1.309,"isOpen":true,"houseNumber":"","postCode":14974},{"id":"dbc70ea8-f0dd-4f4f-b99f-61f77e1dbace","name":"Aral Tankstelle","brand":"ARAL","street":"Berliner Stra\u00dfe","place":"Erkner","lat":52.4280548,"lng":13.7441912,"dist":24,"diesel":1.129,"e5":1.309,"e10":1.289,"isOpen":true,"houseNumber":"11","postCode":15537},{"id":"01de617a-fdf6-47a3-a693-626cfeebe182","name":"GO Gosen Mueggelpark","brand":"GO","street":"Mueggelpark","place":"Gosen","lat":52.396198,"lng":13.7206,"dist":24.3,"diesel":1.099,"e5":1.299,"e10":1.279,"isOpen":true,"houseNumber":"35","postCode":15537},{"id":"aca2adbf-e74c-4acf-8532-74ea81e09e5c","name":"Greenline Ludwigsfelde","brand":"Greenline","street":"Am Birkengrund","place":"Ludwigsfelde","lat":52.315,"lng":13.2738,"dist":24.3,"diesel":1.168,"e5":null,"e10":null,"isOpen":true,"houseNumber":"12","postCode":14974},{"id":"2ae63863-c373-4c4b-9547-da37c58e0507","name":"TOTAL DALLGOW","brand":"TOTAL","street":"ARTILLERIEPARK","place":"DALLGOW","lat":52.53323,"lng":13.0607,"dist":24.4,"diesel":1.109,"e5":1.309,"e10":1.289,"isOpen":true,"houseNumber":"5","postCode":14624},{"id":"f70163a5-0264-45d5-bfef-c1f3c7a9e15a","name":"RUEDERSDORF, AM STOLP","brand":"Shell","street":"AM STOLP 19","place":"RUEDERSDORF","lat":52.470628,"lng":13.773099,"dist":24.4,"diesel":1.139,"e5":1.329,"e10":1.289,"isOpen":true,"houseNumber":"","postCode":15562},{"id":"28e010e8-9392-4b92-905e-7b9aa68e1c4e","name":"ERKNER, WOLTERSDORFER LANDSTR.","brand":"Shell","street":"WOLTERSDORFER LANDSTR.","place":"ERKNER","lat":52.430464,"lng":13.752845,"dist":24.5,"diesel":1.139,"e5":1.289,"e10":1.269,"isOpen":true,"houseNumber":"","postCode":15537},{"id":"e1a15081-253f-9107-e040-0b0a3dfe563c","name":"Velten, Ahornstr. 1","brand":"HEM","street":"Ahornstr.","place":"Velten","lat":52.68665,"lng":13.193324,"dist":24.5,"diesel":1.139,"e5":1.299,"e10":1.279,"isOpen":true,"houseNumber":"1","postCode":16727},{"id":"e1a15081-2542-9107-e040-0b0a3dfe563c","name":"Wandlitz, Prenzlauer Chaussee 3","brand":"HEM","street":"Prenzlauer Chaussee","place":"Wandlitz","lat":52.7343,"lng":13.448735,"dist":24.5,"diesel":1.119,"e5":1.319,"e10":1.299,"isOpen":true,"houseNumber":"3","postCode":16348},